{
  "an1.1-10": {
    "location_dppn_headword": "Jetavana",
    "location_text": "Jeta's Grove, Anāthapiṇḍika's monastery",
    "geometry": {
      "type": "Point",
      "coordinates": [
        82.040073,
        27.509466
      ]
    }
  },
  "an2.1-10": {
    "location_dppn_headword": "Jetavana",
    "location_text": "Jeta's Grove, Anāthapiṇḍika's monastery, Sāvatthī",
    "geometry": {
      "type": "Point",
      "coordinates": [
        82.040073,
        27.509466
      ]
    }
  },
  "an3.1": {
    "location_dppn_headword": "Jetavana",
    "location_text": "Jeta's Grove, Anāthapiṇḍika's monastery, Sāvatthī",
    "geometry": {
      "type": "Point",
      "coordinates": [
        82.040073,
        27.509466
      ]
    }
  },
  "an3.15": {
    "location_dppn_headword": "Bārānasī",
    "location_text": "Benares, in the deer park at Isipatana",
    "geometry": {
      "type": "Point",
      "coordinates": [
        83.0044556,
        25.2993376
      ]
    }
  },
  "an3.21": {
    "location_dppn_headword": "Jetavana",
    "location_text": "Jeta's Grove, Anāthapiṇḍika's monastery in Sāvatthī",
    "geometry": {
      "type": "Point",
      "coordinates": [
        82.040073,
        27.509466
      ]
    }
  },
  "an3.35": {
    "location_dppn_headword": "Āḷavī",
    "location_text": "Āḷavī, on a mat of leaves by a cow-path in a grove of Indian Rosewood",
    "geometry": {
      "type": "Point",
      "coordinates": [
        83.43188,
        26.101153
      ]
    }
  },
  "an3.60": {
    "location_dppn_headword": "",
    "location_text": "Saṅgha of mendicants",
    "geometry": {}
  },
  "an3.63": {
    "location_dppn_headword": "Venāgapura",
    "location_text": "the land of the Kosalans, Venāgapura",
    "geometry": {}
  },
  "an3.64": {
    "location_dppn_headword": "Gijjhakūṭa",
    "location_text": "Rājagaha, on the Vulture's Peak Mountain",
    "geometry": {
      "type": "Point",
      "coordinates": [
        85.446707,
        25.001967
      ]
    }
  },
  "an3.70": {
    "location_dppn_headword": "Sāvatthī",
    "location_text": "Sāvatthī in the Eastern Monastery, the stilt longhouse of Migāra's mother",
    "geometry": {
      "type": "Point",
      "coordinates": [
        82.062976,
        27.519508
      ]
    }
  },
  "an3.71": {
    "location_dppn_headword": "Jetavana",
    "location_text": "Jeta's Grove, Anāthapiṇḍika's monastery, Sāvatthī",
    "geometry": {
      "type": "Point",
      "coordinates": [
        82.040073,
        27.509466
      ]
    }
  },
  "an3.72": {
    "location_dppn_headword": "Kosambī",
    "location_text": "Ghosita's Monastery, Kosambi",
    "geometry": {
      "type": "Point",
      "coordinates": [
        81.392899,
        25.338984
      ]
    }
  },
  "an3.73": {
    "location_dppn_headword": "Kapilavatthu",
    "location_text": "Kapilavatthu, Banyan Tree Monastery",
    "geometry": {
      "type": "Point",
      "coordinates": [
        83.062961,
        27.5498798
      ]
    }
  },
  "an3.74": {
    "location_dppn_headword": "Vesāli",
    "location_text": "Vesālī, at the Great Wood, in the hall with the peaked roof",
    "geometry": {
      "type": "Point",
      "coordinates": [
        85.10951,
        26.014521
      ]
    }
  },
  "an3.84": {
    "location_dppn_headword": "Vesāli",
    "location_text": "Vesālī, at the Great Wood, in the hall with the peaked roof",
    "geometry": {
      "type": "Point",
      "coordinates": [
        85.10951,
        26.014521
      ]
    }
  },
  "an3.91": {
    "location_dppn_headword": "Paṅkadhā",
    "location_text": "Paṅkadhā and Rājagaha",
    "geometry": {}
  },
  "an3.123": {
    "location_dppn_headword": "Kusinārā",
    "location_text": "Kusinārā, in the Forest of Offerings",
    "geometry": {
      "type": "Point",
      "coordinates": [
        83.8835179,
        26.7371164
      ]
    }
  },
  "an3.125": {
    "location_dppn_headword": "Vesāli",
    "location_text": "Vesālī, at the Buddhaka Tree-shrine",
    "geometry": {
      "type": "Point",
      "coordinates": [
        85.10951,
        26.014521
      ]
    }
  },
  "an3.126": {
    "location_dppn_headword": "Kapilavatthu",
    "location_text": "Kapilavatthu",
    "geometry": {
      "type": "Point",
      "coordinates": [
        83.062961,
        27.5498798
      ]
    }
  },
  "an3.127": {
    "location_dppn_headword": "Jetavana",
    "location_text": "Jeta's Grove, Sāvatthī",
    "geometry": {
      "type": "Point",
      "coordinates": [
        82.040073,
        27.509466
      ]
    }
  },
  "an3.128": {
    "location_dppn_headword": "Bārānasī",
    "location_text": "Benares, in the deer park at Isipatana",
    "geometry": {
      "type": "Point",
      "coordinates": [
        83.0044556,
        25.2993376
      ]
    }
  },
  "an3.143": {
    "location_dppn_headword": "Rājagaha",
    "location_text": "Rājagaha, at the monastery of the wanderers in the peacocks' feeding ground",
    "geometry": {
      "type": "Point",
      "coordinates": [
        85.42,
        25.03
      ]
    }
  },
  "an4.1": {
    "location_dppn_headword": "Vajjī",
    "location_text": "the land of the Vajjis at the village of Bhaṇḍa",
    "geometry": {
      "type": "Polygon",
      "coordinates": [
        [
          [
            84.4747778,
            26.2245227
          ],
          [
            84.5790667,
            25.9385529
          ],
          [
            84.8645141,
            25.7211391
          ],
          [
            85.1293819,
            25.6568238
          ],
          [
            85.4354233,
            25.6320759
          ],
          [
            85.7099001,
            25.6320744
          ],
          [
            86.0282924,
            25.7409099
          ],
          [
            86.2574867,
            25.8670498
          ],
          [
            86.3220192,
            26.0594142
          ],
          [
            86.4429175,
            26.3032469
          ],
          [
            86.377141,
            26.6375128
          ],
          [
            85.9983396,
            26.9977273
          ],
          [
            85.5480983,
            27.051509
          ],
          [
            85.2813721,
            26.9661418
          ],
          [
            84.9880077,
            26.7576255
          ],
          [
            84.86454,
            26.6472347
          ],
          [
            84.5351721,
            26.4999589
          ],
          [
            84.4747778,
            26.2245227
          ]
        ]
      ]
    }
  },
  "an4.21": {
    "location_dppn_headword": "Jetavana",
    "location_text": "Jeta's Grove, Anāthapiṇḍika's monastery, Sāvatthī",
    "geometry": {
      "type": "Point",
      "coordinates": [
        82.040073,
        27.509466
      ]
    }
  },
  "an4.22": {
    "location_dppn_headword": "Uruvelā",
    "location_text": "Uruvelā at the goatherd's banyan tree on the bank of the Nerañjarā River",
    "geometry": {
      "type": "Point",
      "coordinates": [
        84.991275,
        24.695102
      ]
    }
  },
  "an4.24": {
    "location_dppn_headword": "Sāketa",
    "location_text": "Sāketa",
    "geometry": {
      "type": "Point",
      "coordinates": [
        82.2,
        26.8
      ]
    }
  },
  "an4.30": {
    "location_dppn_headword": "Gijjhakūṭa",
    "location_text": "Rājagaha, on the Vulture's Peak Mountain",
    "geometry": {
      "type": "Point",
      "coordinates": [
        85.446707,
        25.001967
      ]
    }
  },
  "an4.35": {
    "location_dppn_headword": "Rājagaha",
    "location_text": "Bamboo Grove, near Rājagaha",
    "geometry": {
      "type": "Point",
      "coordinates": [
        85.42,
        25.03
      ]
    }
  },
  "an4.36": {
    "location_dppn_headword": "Setabyā",
    "location_text": "Ukkaṭṭhā, Setavyā",
    "geometry": {
      "type": "Point",
      "coordinates": [
        82.548065,
        27.668934
      ]
    }
  },
  "an4.45": {
    "location_dppn_headword": "Jetavana",
    "location_text": "Jeta's Grove, Sāvatthī",
    "geometry": {
      "type": "Point",
      "coordinates": [
        82.040073,
        27.509466
      ]
    }
  },
  "an4.46": {
    "location_dppn_headword": "Jetavana",
    "location_text": "Jeta's Grove",
    "geometry": {
      "type": "Point",
      "coordinates": [
        82.040073,
        27.509466
      ]
    }
  },
  "an4.48": {
    "location_dppn_headword": "Jetavana",
    "location_text": "Jeta's Grove, Anāthapiṇḍika's monastery, Sāvatthī",
    "geometry": {
      "type": "Point",
      "coordinates": [
        82.040073,
        27.509466
      ]
    }
  },
  "an4.51": {
    "location_dppn_headword": "Sāvatthī",
    "location_text": "Sāvatthī",
    "geometry": {
      "type": "Point",
      "coordinates": [
        82.062976,
        27.519508
      ]
    }
  },
  "an4.53": {
    "location_dppn_headword": "",
    "location_text": "the road between Madhura and Verañja",
    "geometry": {}
  },
  "an4.55": {
    "location_dppn_headword": "Susumāragiri",
    "location_text": "the land of the Bhaggas on Crocodile Hill, in the deer park at Bhesakaḷā's Wood",
    "geometry": {}
  },
  "an4.57": {
    "location_dppn_headword": "Pajjanika",
    "location_text": "The land of the Koliyans, Pajjanika",
    "geometry": {
      "type": "Point",
      "coordinates": [
        83.7130737,
        27.3083331
      ]
    }
  },
  "an4.67": {
    "location_dppn_headword": "Jetavana",
    "location_text": "Jeta's Grove, Anāthapiṇḍika's monastery, Sāvatthī",
    "geometry": {
      "type": "Point",
      "coordinates": [
        82.040073,
        27.509466
      ]
    }
  },
  "an4.68": {
    "location_dppn_headword": "Gijjhakūṭa",
    "location_text": "Vulture's Peak Mountain, near Rājagaha",
    "geometry": {
      "type": "Point",
      "coordinates": [
        85.446707,
        25.001967
      ]
    }
  },
  "an4.76": {
    "location_dppn_headword": "Upavatta",
    "location_text": "Upavattana near Kusinārā",
    "geometry": {
      "type": "Point",
      "coordinates": [
        83.8986393,
        26.7301265
      ]
    }
  },
  "an4.80": {
    "location_dppn_headword": "Kosambī",
    "location_text": "Kosambi, in Ghosita's Monastery",
    "geometry": {
      "type": "Point",
      "coordinates": [
        81.392899,
        25.338984
      ]
    }
  },
  "an4.101": {
    "location_dppn_headword": "Jetavana",
    "location_text": "Jeta's Grove, Anāthapiṇḍika's monastery, near Sāvatthī",
    "geometry": {
      "type": "Point",
      "coordinates": [
        82.040073,
        27.509466
      ]
    }
  },
  "an4.159": {
    "location_dppn_headword": "Kosambī",
    "location_text": "Kosambi, in Ghosita's Monastery",
    "geometry": {
      "type": "Point",
      "coordinates": [
        81.392899,
        25.338984
      ]
    }
  },
  "an4.170": {
    "location_dppn_headword": "Kosambī",
    "location_text": "Kosambi, in Ghosita's Monastery",
    "geometry": {
      "type": "Point",
      "coordinates": [
        81.392899,
        25.338984
      ]
    }
  },
  "an4.180": {
    "location_dppn_headword": "Bhoganagara",
    "location_text": "near the city of Bhoga, at the Ānanda Tree-shrine",
    "geometry": {
      "type": "Point",
      "coordinates": [
        84.298782,
        26.573175
      ]
    }
  },
  "an4.183": {
    "location_dppn_headword": "Rājagaha",
    "location_text": "Bamboo Grove, near Rājagaha",
    "geometry": {
      "type": "Point",
      "coordinates": [
        85.42,
        25.03
      ]
    }
  },
  "an4.185": {
    "location_dppn_headword": "Gijjhakūṭa",
    "location_text": "Rājagaha, on the Vulture's Peak Mountain",
    "geometry": {
      "type": "Point",
      "coordinates": [
        85.446707,
        25.001967
      ]
    }
  },
  "an4.187": {
    "location_dppn_headword": "Rājagaha",
    "location_text": "Bamboo Grove, near Rājagaha",
    "geometry": {
      "type": "Point",
      "coordinates": [
        85.42,
        25.03
      ]
    }
  },
  "an4.188": {
    "location_dppn_headword": "Gijjhakūṭa",
    "location_text": "Rājagaha, on the Vulture's Peak Mountain",
    "geometry": {
      "type": "Point",
      "coordinates": [
        85.446707,
        25.001967
      ]
    }
  },
  "an4.190": {
    "location_dppn_headword": "Sāvatthī",
    "location_text": "Sāvatthī in the Eastern Monastery, the stilt longhouse of Migāra's mother",
    "geometry": {
      "type": "Point",
      "coordinates": [
        82.062976,
        27.519508
      ]
    }
  },
  "an4.194": {
    "location_dppn_headword": "Sāmuga",
    "location_text": "the land of the Koliyans, Sāpūga",
    "geometry": {
      "type": "Point",
      "coordinates": [
        83.4576434,
        27.3278568
      ]
    }
  },
  "an4.195": {
    "location_dppn_headword": "Kapilavatthu",
    "location_text": "Kapilavatthu in the Banyan Tree Monastery",
    "geometry": {
      "type": "Point",
      "coordinates": [
        83.062961,
        27.5498798
      ]
    }
  },
  "an4.196": {
    "location_dppn_headword": "Vesāli",
    "location_text": "Vesālī, at the Great Wood, in the hall with the peaked roof",
    "geometry": {
      "type": "Point",
      "coordinates": [
        85.10951,
        26.014521
      ]
    }
  },
  "an4.197": {
    "location_dppn_headword": "Jetavana",
    "location_text": "Jeta's Grove, Anāthapiṇḍika's monastery, near Sāvatthī",
    "geometry": {
      "type": "Point",
      "coordinates": [
        82.040073,
        27.509466
      ]
    }
  },
  "an4.243": {
    "location_dppn_headword": "Kosambī",
    "location_text": "Ghosita's Monastery, near Kosambi",
    "geometry": {
      "type": "Point",
      "coordinates": [
        81.392899,
        25.338984
      ]
    }
  },
  "an5.1": {
    "location_dppn_headword": "Jetavana",
    "location_text": "Jeta's Grove, Anāthapiṇḍika's monastery, Sāvatthī",
    "geometry": {
      "type": "Point",
      "coordinates": [
        82.040073,
        27.509466
      ]
    }
  },
  "an5.30": {
    "location_dppn_headword": "Iccānaṅgala",
    "location_text": "Icchānaṅgala",
    "geometry": {
      "type": "Point",
      "coordinates": [
        82.706451,
        27.630007
      ]
    }
  },
  "an5.31": {
    "location_dppn_headword": "Jetavana",
    "location_text": "Jeta's Grove, Anāthapiṇḍika's monastery near Sāvatthī",
    "geometry": {
      "type": "Point",
      "coordinates": [
        82.040073,
        27.509466
      ]
    }
  },
  "an5.32": {
    "location_dppn_headword": "Rājagaha",
    "location_text": "Bamboo Grove, near Rājagaha",
    "geometry": {
      "type": "Point",
      "coordinates": [
        85.42,
        25.03
      ]
    }
  },
  "an5.33": {
    "location_dppn_headword": "",
    "location_text": "Jātiyā Wood, near Bhaddiya",
    "geometry": {}
  },
  "an5.34": {
    "location_dppn_headword": "Vesāli",
    "location_text": "Vesālī, at the Great Wood, in the hall with the peaked roof",
    "geometry": {
      "type": "Point",
      "coordinates": [
        85.10951,
        26.014521
      ]
    }
  },
  "an5.41": {
    "location_dppn_headword": "Jetavana",
    "location_text": "Jeta's Grove, Anāthapiṇḍika's monastery, near Sāvatthī",
    "geometry": {
      "type": "Point",
      "coordinates": [
        82.040073,
        27.509466
      ]
    }
  },
  "an5.44": {
    "location_dppn_headword": "Vesāli",
    "location_text": "Vesālī, at the Great Wood, in the hall with the peaked roof and Jeta's Grove, Anāthapiṇḍika's monastery.",
    "geometry": {
      "type": "Point",
      "coordinates": [
        85.10951,
        26.014521
      ]
    }
  },
  "an5.49": {
    "location_dppn_headword": "Jetavana",
    "location_text": "Jeta's Grove, Anāthapiṇḍika's monastery, Sāvatthī",
    "geometry": {
      "type": "Point",
      "coordinates": [
        82.040073,
        27.509466
      ]
    }
  },
  "an5.50": {
    "location_dppn_headword": "Pātaligāma",
    "location_text": "Pāṭaliputta, in the Chicken Monastery",
    "geometry": {
      "type": "Point",
      "coordinates": [
        85.159149,
        25.576511
      ]
    }
  },
  "an5.51": {
    "location_dppn_headword": "Jetavana",
    "location_text": "Jeta's Grove, Anāthapiṇḍika's monastery, Sāvatthī",
    "geometry": {
      "type": "Point",
      "coordinates": [
        82.040073,
        27.509466
      ]
    }
  },
  "an5.55": {
    "location_dppn_headword": "Jetavana",
    "location_text": "Jeta's Grove, Anāthapiṇḍika's monastery, Sāvatthī",
    "geometry": {
      "type": "Point",
      "coordinates": [
        82.040073,
        27.509466
      ]
    }
  },
  "an5.58": {
    "location_dppn_headword": "Vesāli",
    "location_text": "Great Wood near Vesālī",
    "geometry": {
      "type": "Point",
      "coordinates": [
        85.10951,
        26.014521
      ]
    }
  },
  "an5.77": {
    "location_dppn_headword": "",
    "location_text": "Wilderness",
    "geometry": {}
  },
  "an5.100": {
    "location_dppn_headword": "Kosambī",
    "location_text": "Ghosita's Monastery, near Kosambi",
    "geometry": {
      "type": "Point",
      "coordinates": [
        81.392899,
        25.338984
      ]
    }
  },
  "an5.106": {
    "location_dppn_headword": "Kosambī",
    "location_text": "Ghosita's Monastery, near Kosambi",
    "geometry": {
      "type": "Point",
      "coordinates": [
        81.392899,
        25.338984
      ]
    }
  },
  "an5.114": {
    "location_dppn_headword": "Andhakavinda",
    "location_text": "the land of the Magadhans at Andhakavinda",
    "geometry": {}
  },
  "an5.121": {
    "location_dppn_headword": "Vesāli",
    "location_text": "Vesālī, at the Great Wood, in the hall with the peaked roof",
    "geometry": {
      "type": "Point",
      "coordinates": [
        85.10951,
        26.014521
      ]
    }
  },
  "an5.143": {
    "location_dppn_headword": "Vesāli",
    "location_text": "Vesālī, at the Great Wood, in the hall with the peaked roof",
    "geometry": {
      "type": "Point",
      "coordinates": [
        85.10951,
        26.014521
      ]
    }
  },
  "an5.144": {
    "location_dppn_headword": "Sāketa",
    "location_text": "Tikaṇḍakī Wood, near Sāketa",
    "geometry": {
      "type": "Point",
      "coordinates": [
        82.2,
        26.8
      ]
    }
  },
  "an5.159": {
    "location_dppn_headword": "Kosambī",
    "location_text": "Ghosita's Monastery, near Kosambi",
    "geometry": {
      "type": "Point",
      "coordinates": [
        81.392899,
        25.338984
      ]
    }
  },
  "an5.166": {
    "location_dppn_headword": "",
    "location_text": "Assembly Hall",
    "geometry": {}
  },
  "an5.170": {
    "location_dppn_headword": "Kosambī",
    "location_text": "Kosambi, in Ghosita's Monastery",
    "geometry": {
      "type": "Point",
      "coordinates": [
        81.392899,
        25.338984
      ]
    }
  },
  "an5.171": {
    "location_dppn_headword": "Jetavana",
    "location_text": "Jeta's Grove, Anāthapiṇḍika's monastery, Sāvatthī",
    "geometry": {
      "type": "Point",
      "coordinates": [
        82.040073,
        27.509466
      ]
    }
  },
  "an5.180": {
    "location_dppn_headword": "Kosala",
    "location_text": "the land of the Kosalans",
    "geometry": {
      "type": "Polygon",
      "coordinates": [
        [
          [
            80.116425,
            26.975933
          ],
          [
            80.292206,
            26.652368
          ],
          [
            80.572357,
            26.332807
          ],
          [
            80.934906,
            26.111054
          ],
          [
            81.259003,
            25.958045
          ],
          [
            81.401825,
            25.923467
          ],
          [
            81.478729,
            25.948166
          ],
          [
            81.665497,
            25.943227
          ],
          [
            81.808319,
            25.923467
          ],
          [
            81.901703,
            25.928407
          ],
          [
            82.033538,
            25.903704
          ],
          [
            82.176361,
            25.992612
          ],
          [
            82.418061,
            26.007424
          ],
          [
            82.632294,
            26.101188
          ],
          [
            82.775116,
            26.199806
          ],
          [
            82.720185,
            26.372185
          ],
          [
            82.65976,
            26.519735
          ],
          [
            82.624054,
            26.7075866
          ],
          [
            82.6460167,
            26.821586
          ],
          [
            82.666626,
            26.928192
          ],
          [
            83.0566412,
            27.2631752
          ],
          [
            83.8271779,
            27.2464624
          ],
          [
            83.8675374,
            27.4332014
          ],
          [
            83.8744357,
            27.5825469
          ],
          [
            82.8739932,
            27.8463619
          ],
          [
            82.3109435,
            27.9458858
          ],
          [
            81.9291688,
            28.0622858
          ],
          [
            81.5583803,
            28.2318101
          ],
          [
            81.3496407,
            28.2947072
          ],
          [
            81.1134343,
            28.3793186
          ],
          [
            80.8854682,
            28.4686917
          ],
          [
            80.48996,
            28.560401
          ],
          [
            80.242221,
            28.1924958
          ],
          [
            80.0889592,
            27.8123572
          ],
          [
            79.9982453,
            27.5859841
          ],
          [
            80.0560005,
            27.36201
          ],
          [
            80.116425,
            26.975933
          ]
        ]
      ]
    }
  },
  "an5.184": {
    "location_dppn_headword": "",
    "location_text": "Charnel ground",
    "geometry": {}
  },
  "an5.194": {
    "location_dppn_headword": "Vesāli",
    "location_text": "Vesālī, at the Great Wood, in the hall with the peaked roof",
    "geometry": {
      "type": "Point",
      "coordinates": [
        85.10951,
        26.014521
      ]
    }
  },
  "an5.195": {
    "location_dppn_headword": "Vesāli",
    "location_text": "Vesālī, at the Great Wood, in the hall with the peaked roof",
    "geometry": {
      "type": "Point",
      "coordinates": [
        85.10951,
        26.014521
      ]
    }
  },
  "an5.201": {
    "location_dppn_headword": "Kimilā",
    "location_text": "Kimbilā in the Freshwater Mangrove Wood",
    "geometry": {}
  },
  "an5.233": {
    "location_dppn_headword": "",
    "location_text": "monastery",
    "geometry": {}
  },
  "an6.1": {
    "location_dppn_headword": "Jetavana",
    "location_text": "Jeta's Grove, Anāthapiṇḍika's monastery, Sāvatthī",
    "geometry": {
      "type": "Point",
      "coordinates": [
        82.040073,
        27.509466
      ]
    }
  },
  "an6.10": {
    "location_dppn_headword": "Kapilavatthu",
    "location_text": "Kapilavatthu in the Banyan Tree Monastery",
    "geometry": {
      "type": "Point",
      "coordinates": [
        83.062961,
        27.5498798
      ]
    }
  },
  "an6.16": {
    "location_dppn_headword": "Susumāragiri",
    "location_text": "the land of the Bhaggas on Crocodile Hill, in the deer park at Bhesakaḷā's Wood.",
    "geometry": {}
  },
  "an6.17": {
    "location_dppn_headword": "Jetavana",
    "location_text": "Jeta's Grove, Anāthapiṇḍika's monastery near Sāvatthī",
    "geometry": {
      "type": "Point",
      "coordinates": [
        82.040073,
        27.509466
      ]
    }
  },
  "an6.18": {
    "location_dppn_headword": "Kosala",
    "location_text": "the land of the Kosalans",
    "geometry": {
      "type": "Polygon",
      "coordinates": [
        [
          [
            80.116425,
            26.975933
          ],
          [
            80.292206,
            26.652368
          ],
          [
            80.572357,
            26.332807
          ],
          [
            80.934906,
            26.111054
          ],
          [
            81.259003,
            25.958045
          ],
          [
            81.401825,
            25.923467
          ],
          [
            81.478729,
            25.948166
          ],
          [
            81.665497,
            25.943227
          ],
          [
            81.808319,
            25.923467
          ],
          [
            81.901703,
            25.928407
          ],
          [
            82.033538,
            25.903704
          ],
          [
            82.176361,
            25.992612
          ],
          [
            82.418061,
            26.007424
          ],
          [
            82.632294,
            26.101188
          ],
          [
            82.775116,
            26.199806
          ],
          [
            82.720185,
            26.372185
          ],
          [
            82.65976,
            26.519735
          ],
          [
            82.624054,
            26.7075866
          ],
          [
            82.6460167,
            26.821586
          ],
          [
            82.666626,
            26.928192
          ],
          [
            83.0566412,
            27.2631752
          ],
          [
            83.8271779,
            27.2464624
          ],
          [
            83.8675374,
            27.4332014
          ],
          [
            83.8744357,
            27.5825469
          ],
          [
            82.8739932,
            27.8463619
          ],
          [
            82.3109435,
            27.9458858
          ],
          [
            81.9291688,
            28.0622858
          ],
          [
            81.5583803,
            28.2318101
          ],
          [
            81.3496407,
            28.2947072
          ],
          [
            81.1134343,
            28.3793186
          ],
          [
            80.8854682,
            28.4686917
          ],
          [
            80.48996,
            28.560401
          ],
          [
            80.242221,
            28.1924958
          ],
          [
            80.0889592,
            27.8123572
          ],
          [
            79.9982453,
            27.5859841
          ],
          [
            80.0560005,
            27.36201
          ],
          [
            80.116425,
            26.975933
          ]
        ]
      ]
    }
  },
  "an6.19": {
    "location_dppn_headword": "Nādikā",
    "location_text": "Nādika in the brick house",
    "geometry": {
      "type": "Point",
      "coordinates": [
        85.256652,
        25.743004
      ]
    }
  },
  "an6.20": {
    "location_dppn_headword": "Nādikā",
    "location_text": "Nādika in the brick house",
    "geometry": {
      "type": "Point",
      "coordinates": [
        85.256652,
        25.743004
      ]
    }
  },
  "an6.21": {
    "location_dppn_headword": "",
    "location_text": "the little village of Sāma, by a lotus pond",
    "geometry": {}
  },
  "an6.28": {
    "location_dppn_headword": "Bārānasī",
    "location_text": "Benares, in the deer park at Isipatana",
    "geometry": {
      "type": "Point",
      "coordinates": [
        83.0044556,
        25.2993376
      ]
    }
  },
  "an6.32": {
    "location_dppn_headword": "Jetavana",
    "location_text": "Jeta's Grove",
    "geometry": {
      "type": "Point",
      "coordinates": [
        82.040073,
        27.509466
      ]
    }
  },
  "an6.33": {
    "location_dppn_headword": "Jetavana",
    "location_text": "Jeta's Grove",
    "geometry": {
      "type": "Point",
      "coordinates": [
        82.040073,
        27.509466
      ]
    }
  },
  "an6.34": {
    "location_dppn_headword": "Jetavana",
    "location_text": "Jeta's Grove, Anāthapiṇḍika's monastery",
    "geometry": {
      "type": "Point",
      "coordinates": [
        82.040073,
        27.509466
      ]
    }
  },
  "an6.37": {
    "location_dppn_headword": "Jetavana",
    "location_text": "Jeta's Grove, Anāthapiṇḍika's monastery, near Sāvatthī",
    "geometry": {
      "type": "Point",
      "coordinates": [
        82.040073,
        27.509466
      ]
    }
  },
  "an6.40": {
    "location_dppn_headword": "Kimilā",
    "location_text": "Kimbilā in the Freshwater Mangrove Wood",
    "geometry": {}
  },
  "an6.41": {
    "location_dppn_headword": "Gijjhakūṭa",
    "location_text": "Vulture's Peak Mountain, Rājagaha",
    "geometry": {
      "type": "Point",
      "coordinates": [
        85.446707,
        25.001967
      ]
    }
  },
  "an6.42": {
    "location_dppn_headword": "Iccānaṅgala",
    "location_text": "the land of the Kosalans, Icchānaṅgala",
    "geometry": {
      "type": "Point",
      "coordinates": [
        82.706451,
        27.630007
      ]
    }
  },
  "an6.43": {
    "location_dppn_headword": "Jetavana",
    "location_text": "Sāvatthī in Jeta's Grove, Anāthapiṇḍika's monastery",
    "geometry": {
      "type": "Point",
      "coordinates": [
        82.040073,
        27.509466
      ]
    }
  },
  "an6.44": {
    "location_dppn_headword": "",
    "location_text": "the home of the laywoman Migasālā",
    "geometry": {}
  },
  "an6.46": {
    "location_dppn_headword": "Sahajāti",
    "location_text": "the land of the Cetis at Sahajāti",
    "geometry": {}
  },
  "an6.49": {
    "location_dppn_headword": "Jetavana",
    "location_text": "Jeta's Grove, Anāthapiṇḍika's monastery near Sāvatthī",
    "geometry": {
      "type": "Point",
      "coordinates": [
        82.040073,
        27.509466
      ]
    }
  },
  "an6.54": {
    "location_dppn_headword": "Gijjhakūṭa",
    "location_text": "Rājagaha, on the Vulture's Peak Mountain",
    "geometry": {
      "type": "Point",
      "coordinates": [
        85.446707,
        25.001967
      ]
    }
  },
  "an6.55": {
    "location_dppn_headword": "Gijjhakūṭa",
    "location_text": "Rājagaha, on the Vulture's Peak Mountain and the Cool Grove",
    "geometry": {
      "type": "Point",
      "coordinates": [
        85.446707,
        25.001967
      ]
    }
  },
  "an6.57": {
    "location_dppn_headword": "Gijjhakūṭa",
    "location_text": "Vulture's Peak Mountain, near Rājagaha",
    "geometry": {
      "type": "Point",
      "coordinates": [
        85.446707,
        25.001967
      ]
    }
  },
  "an6.59": {
    "location_dppn_headword": "Nādikā",
    "location_text": "Nādika in the brick house",
    "geometry": {
      "type": "Point",
      "coordinates": [
        85.256652,
        25.743004
      ]
    }
  },
  "an6.60": {
    "location_dppn_headword": "Bārānasī",
    "location_text": "Benares, in the deer park at Isipatana",
    "geometry": {
      "type": "Point",
      "coordinates": [
        83.0044556,
        25.2993376
      ]
    }
  },
  "an6.61": {
    "location_dppn_headword": "Bārānasī",
    "location_text": "Benares, in the deer park at Isipatana",
    "geometry": {
      "type": "Point",
      "coordinates": [
        83.0044556,
        25.2993376
      ]
    }
  },
  "an6.62": {
    "location_dppn_headword": "Daṇḍakappaka",
    "location_text": "Daṇḍakappaka, Kosalans",
    "geometry": {}
  },
  "an6.69": {
    "location_dppn_headword": "Jetavana",
    "location_text": "Jeta's Grove",
    "geometry": {
      "type": "Point",
      "coordinates": [
        82.040073,
        27.509466
      ]
    }
  },
  "an7.1": {
    "location_dppn_headword": "Jetavana",
    "location_text": "Jeta's Grove, Anāthapiṇḍika's monastery, near Sāvatthī",
    "geometry": {
      "type": "Point",
      "coordinates": [
        82.040073,
        27.509466
      ]
    }
  },
  "an7.3": {
    "location_dppn_headword": "Jetavana",
    "location_text": "Jeta's Grove, Anāthapiṇḍika's monastery",
    "geometry": {
      "type": "Point",
      "coordinates": [
        82.040073,
        27.509466
      ]
    }
  },
  "an7.21": {
    "location_dppn_headword": "Vesāli",
    "location_text": "Vesālī, at the Sārandada Tree-shrine",
    "geometry": {
      "type": "Point",
      "coordinates": [
        85.10951,
        26.014521
      ]
    }
  },
  "an7.22": {
    "location_dppn_headword": "Gijjhakūṭa",
    "location_text": "Rājagaha, on the Vulture's Peak Mountain",
    "geometry": {
      "type": "Point",
      "coordinates": [
        85.446707,
        25.001967
      ]
    }
  },
  "an7.23": {
    "location_dppn_headword": "Gijjhakūṭa",
    "location_text": "Rājagaha, on the Vulture's Peak Mountain",
    "geometry": {
      "type": "Point",
      "coordinates": [
        85.446707,
        25.001967
      ]
    }
  },
  "an7.28": {
    "location_dppn_headword": "Jetavana",
    "location_text": "Jeta's Grove, Anāthapiṇḍika's monastery, Sāvatthī",
    "geometry": {
      "type": "Point",
      "coordinates": [
        82.040073,
        27.509466
      ]
    }
  },
  "an7.32": {
    "location_dppn_headword": "Jetavana",
    "location_text": "Jeta's Grove",
    "geometry": {
      "type": "Point",
      "coordinates": [
        82.040073,
        27.509466
      ]
    }
  },
  "an7.33": {
    "location_dppn_headword": "Jetavana",
    "location_text": "Jeta's Grove",
    "geometry": {
      "type": "Point",
      "coordinates": [
        82.040073,
        27.509466
      ]
    }
  },
  "an7.42": {
    "location_dppn_headword": "Sāvatthī",
    "location_text": "Sāvatthī",
    "geometry": {
      "type": "Point",
      "coordinates": [
        82.062976,
        27.519508
      ]
    }
  },
  "an7.43": {
    "location_dppn_headword": "Kosambī",
    "location_text": "Ghosita's Monastery, Kosambi",
    "geometry": {
      "type": "Point",
      "coordinates": [
        81.392899,
        25.338984
      ]
    }
  },
  "an7.52": {
    "location_dppn_headword": "Campā",
    "location_text": "Campā on the banks of the Gaggarā Lotus Pond",
    "geometry": {
      "type": "Point",
      "coordinates": [
        87.0049786,
        25.249845
      ]
    }
  },
  "an7.53": {
    "location_dppn_headword": "Veḷukaṇḍa",
    "location_text": "Southern Hills, Veḷukaṇṭa",
    "geometry": {
      "type": "Point",
      "coordinates": [
        82.1557617,
        22.8537964
      ]
    }
  },
  "an7.56": {
    "location_dppn_headword": "Gijjhakūṭa",
    "location_text": "Vulture's Peak Mountain, near Rājagaha",
    "geometry": {
      "type": "Point",
      "coordinates": [
        85.446707,
        25.001967
      ]
    }
  },
  "an7.57": {
    "location_dppn_headword": "Vesāli",
    "location_text": "Great Wood, near Vesālī, in the hall with the peaked roof",
    "geometry": {
      "type": "Point",
      "coordinates": [
        85.10951,
        26.014521
      ]
    }
  },
  "an7.59": {
    "location_dppn_headword": "Kimilā",
    "location_text": "Kimbilā in the Freshwater Mangrove Wood",
    "geometry": {}
  },
  "an7.61": {
    "location_dppn_headword": "Susumāragiri",
    "location_text": "The land of the Bhaggas on Crocodile Hill, in the deer park at Bhesakaḷā's Wood and near Kallavāḷamutta Village in the land of the Magadhans.",
    "geometry": {}
  },
  "an7.63": {
    "location_dppn_headword": "",
    "location_text": "the home of the householder Anāthapiṇḍika",
    "geometry": {}
  },
  "an7.66": {
    "location_dppn_headword": "Vesāli",
    "location_text": "Vesālī, in Ambapālī's Wood",
    "geometry": {
      "type": "Point",
      "coordinates": [
        85.10951,
        26.014521
      ]
    }
  },
  "an7.69": {
    "location_dppn_headword": "",
    "location_text": "Shady Orchid Tree",
    "geometry": {}
  },
  "an7.72": {
    "location_dppn_headword": "Kosala",
    "location_text": "the land of the Kosalans",
    "geometry": {
      "type": "Polygon",
      "coordinates": [
        [
          [
            80.116425,
            26.975933
          ],
          [
            80.292206,
            26.652368
          ],
          [
            80.572357,
            26.332807
          ],
          [
            80.934906,
            26.111054
          ],
          [
            81.259003,
            25.958045
          ],
          [
            81.401825,
            25.923467
          ],
          [
            81.478729,
            25.948166
          ],
          [
            81.665497,
            25.943227
          ],
          [
            81.808319,
            25.923467
          ],
          [
            81.901703,
            25.928407
          ],
          [
            82.033538,
            25.903704
          ],
          [
            82.176361,
            25.992612
          ],
          [
            82.418061,
            26.007424
          ],
          [
            82.632294,
            26.101188
          ],
          [
            82.775116,
            26.199806
          ],
          [
            82.720185,
            26.372185
          ],
          [
            82.65976,
            26.519735
          ],
          [
            82.624054,
            26.7075866
          ],
          [
            82.6460167,
            26.821586
          ],
          [
            82.666626,
            26.928192
          ],
          [
            83.0566412,
            27.2631752
          ],
          [
            83.8271779,
            27.2464624
          ],
          [
            83.8675374,
            27.4332014
          ],
          [
            83.8744357,
            27.5825469
          ],
          [
            82.8739932,
            27.8463619
          ],
          [
            82.3109435,
            27.9458858
          ],
          [
            81.9291688,
            28.0622858
          ],
          [
            81.5583803,
            28.2318101
          ],
          [
            81.3496407,
            28.2947072
          ],
          [
            81.1134343,
            28.3793186
          ],
          [
            80.8854682,
            28.4686917
          ],
          [
            80.48996,
            28.560401
          ],
          [
            80.242221,
            28.1924958
          ],
          [
            80.0889592,
            27.8123572
          ],
          [
            79.9982453,
            27.5859841
          ],
          [
            80.0560005,
            27.36201
          ],
          [
            80.116425,
            26.975933
          ]
        ]
      ]
    }
  },
  "an8.1": {
    "location_dppn_headword": "Jetavana",
    "location_text": "Jeta's Grove, Anāthapiṇḍika's monastery, near Sāvatthī",
    "geometry": {
      "type": "Point",
      "coordinates": [
        82.040073,
        27.509466
      ]
    }
  },
  "an8.7": {
    "location_dppn_headword": "Gijjhakūṭa",
    "location_text": "Vulture's Peak Mountain, near Rājagaha",
    "geometry": {
      "type": "Point",
      "coordinates": [
        85.446707,
        25.001967
      ]
    }
  },
  "an8.8": {
    "location_dppn_headword": "Vaṭajālikāyaṁ",
    "location_text": "Saṅkheyyaka Mountain in the Mahisa region near Dhavajālikā",
    "geometry": {}
  },
  "an8.10": {
    "location_dppn_headword": "Campā",
    "location_text": "Campā on the banks of the Gaggarā Lotus Pond",
    "geometry": {
      "type": "Point",
      "coordinates": [
        87.0049786,
        25.249845
      ]
    }
  },
  "an8.11": {
    "location_dppn_headword": "",
    "location_text": "Verañja at the root of a neem tree",
    "geometry": {}
  },
  "an8.12": {
    "location_dppn_headword": "Vesāli",
    "location_text": "Vesālī, at the Great Wood, in the hall with the peaked roof",
    "geometry": {
      "type": "Point",
      "coordinates": [
        85.10951,
        26.014521
      ]
    }
  },
  "an8.19": {
    "location_dppn_headword": "",
    "location_text": "Verañja at the root of a neem tree dedicated to Naḷeru",
    "geometry": {}
  },
  "an8.20": {
    "location_dppn_headword": "Sāvatthī",
    "location_text": "Sāvatthī in the Eastern Monastery, the stilt longhouse of Migāra's mother",
    "geometry": {
      "type": "Point",
      "coordinates": [
        82.062976,
        27.519508
      ]
    }
  },
  "an8.21": {
    "location_dppn_headword": "Vesāli",
    "location_text": "Great Wood, near Vesālī",
    "geometry": {
      "type": "Point",
      "coordinates": [
        85.10951,
        26.014521
      ]
    }
  },
  "an8.22": {
    "location_dppn_headword": "Vajjī",
    "location_text": "the land of the Vajjis at the village of Hatthi",
    "geometry": {
      "type": "Polygon",
      "coordinates": [
        [
          [
            84.4747778,
            26.2245227
          ],
          [
            84.5790667,
            25.9385529
          ],
          [
            84.8645141,
            25.7211391
          ],
          [
            85.1293819,
            25.6568238
          ],
          [
            85.4354233,
            25.6320759
          ],
          [
            85.7099001,
            25.6320744
          ],
          [
            86.0282924,
            25.7409099
          ],
          [
            86.2574867,
            25.8670498
          ],
          [
            86.3220192,
            26.0594142
          ],
          [
            86.4429175,
            26.3032469
          ],
          [
            86.377141,
            26.6375128
          ],
          [
            85.9983396,
            26.9977273
          ],
          [
            85.5480983,
            27.051509
          ],
          [
            85.2813721,
            26.9661418
          ],
          [
            84.9880077,
            26.7576255
          ],
          [
            84.86454,
            26.6472347
          ],
          [
            84.5351721,
            26.4999589
          ],
          [
            84.4747778,
            26.2245227
          ]
        ]
      ]
    }
  },
  "an8.23": {
    "location_dppn_headword": "Āḷavī",
    "location_text": "Āḷavī, at the Aggāḷava Tree-shrine",
    "geometry": {
      "type": "Point",
      "coordinates": [
        83.43188,
        26.101153
      ]
    }
  },
  "an8.24": {
    "location_dppn_headword": "Āḷavī",
    "location_text": "Āḷavī, at the Aggāḷava Tree-shrine",
    "geometry": {
      "type": "Point",
      "coordinates": [
        83.43188,
        26.101153
      ]
    }
  },
  "an8.25": {
    "location_dppn_headword": "Kapilavatthu",
    "location_text": "Kapilavatthu in the Banyan Tree Monastery",
    "geometry": {
      "type": "Point",
      "coordinates": [
        83.062961,
        27.5498798
      ]
    }
  },
  "an8.26": {
    "location_dppn_headword": "Rājagaha",
    "location_text": "Jīvaka's Mango Grove, Rājagaha",
    "geometry": {
      "type": "Point",
      "coordinates": [
        85.42,
        25.03
      ]
    }
  },
  "an8.30": {
    "location_dppn_headword": "Susumāragiri",
    "location_text": "the land of the Bhaggas on Crocodile Hill, in the deer park at Bhesakaḷā's Wood and the land of the Cetīs in the Eastern Bamboo Park.",
    "geometry": {}
  },
  "an8.41": {
    "location_dppn_headword": "Jetavana",
    "location_text": "Jeta's Grove, Anāthapiṇḍika's monastery, Sāvatthī",
    "geometry": {
      "type": "Point",
      "coordinates": [
        82.040073,
        27.509466
      ]
    }
  },
  "an8.43": {
    "location_dppn_headword": "Sāvatthī",
    "location_text": "Sāvatthī in the Eastern Monastery, the stilt longhouse of Migāra's mother",
    "geometry": {
      "type": "Point",
      "coordinates": [
        82.062976,
        27.519508
      ]
    }
  },
  "an8.44": {
    "location_dppn_headword": "Vesāli",
    "location_text": "Vesālī, at the Great Wood, in the hall with the peaked roof",
    "geometry": {
      "type": "Point",
      "coordinates": [
        85.10951,
        26.014521
      ]
    }
  },
  "an8.45": {
    "location_dppn_headword": "Jetavana",
    "location_text": "Jeta's Grove, Anāthapiṇḍika's monastery, Sāvatthī",
    "geometry": {
      "type": "Point",
      "coordinates": [
        82.040073,
        27.509466
      ]
    }
  },
  "an8.46": {
    "location_dppn_headword": "Kosambī",
    "location_text": "Ghosita's Monastery, near Kosambi",
    "geometry": {
      "type": "Point",
      "coordinates": [
        81.392899,
        25.338984
      ]
    }
  },
  "an8.47": {
    "location_dppn_headword": "Sāvatthī",
    "location_text": "Sāvatthī, Eastern Monastery, the stilt longhouse of Migāra's mother",
    "geometry": {
      "type": "Point",
      "coordinates": [
        82.062976,
        27.519508
      ]
    }
  },
  "an8.48": {
    "location_dppn_headword": "Susumāragiri",
    "location_text": "the land of the Bhaggas on Crocodile Hill, in the deer park at Bhesakaḷā's Wood",
    "geometry": {}
  },
  "an8.49": {
    "location_dppn_headword": "Sāvatthī",
    "location_text": "Sāvatthī in the Eastern Monastery, the stilt longhouse of Migāra's mother",
    "geometry": {
      "type": "Point",
      "coordinates": [
        82.062976,
        27.519508
      ]
    }
  },
  "an8.51": {
    "location_dppn_headword": "Kapilavatthu",
    "location_text": "Kapilavatthu in the Banyan Tree Monastery",
    "geometry": {
      "type": "Point",
      "coordinates": [
        83.062961,
        27.5498798
      ]
    }
  },
  "an8.52": {
    "location_dppn_headword": "Vesāli",
    "location_text": "Vesālī, at the Great Wood, in the hall with the peaked roof",
    "geometry": {
      "type": "Point",
      "coordinates": [
        85.10951,
        26.014521
      ]
    }
  },
  "an8.53": {
    "location_dppn_headword": "Vesāli",
    "location_text": "Vesālī, at the Great Wood, in the hall with the peaked roof",
    "geometry": {
      "type": "Point",
      "coordinates": [
        85.10951,
        26.014521
      ]
    }
  },
  "an8.54": {
    "location_dppn_headword": "Kakkarapatta",
    "location_text": "The land of the Koliyans, Kakkarapatta",
    "geometry": {
      "type": "Point",
      "coordinates": [
        83.7734985,
        27.5155794
      ]
    }
  },
  "an8.64": {
    "location_dppn_headword": "Gayā",
    "location_text": "Gayā on Gayā Head",
    "geometry": {
      "type": "Point",
      "coordinates": [
        85.01,
        24.75
      ]
    }
  },
  "an8.70": {
    "location_dppn_headword": "Vesāli",
    "location_text": "Vesālī, at the Great Wood, in the hall with the peaked roof",
    "geometry": {
      "type": "Point",
      "coordinates": [
        85.10951,
        26.014521
      ]
    }
  },
  "an8.73": {
    "location_dppn_headword": "Nādikā",
    "location_text": "Nādika in the brick house",
    "geometry": {
      "type": "Point",
      "coordinates": [
        85.256652,
        25.743004
      ]
    }
  },
  "an8.74": {
    "location_dppn_headword": "Nādikā",
    "location_text": "Nādika in the brick house",
    "geometry": {
      "type": "Point",
      "coordinates": [
        85.256652,
        25.743004
      ]
    }
  },
  "an8.86": {
    "location_dppn_headword": "Iccānaṅgala",
    "location_text": "the land of the Kosalans, Icchānaṅgala, a forest near Icchānaṅgala",
    "geometry": {
      "type": "Point",
      "coordinates": [
        82.706451,
        27.630007
      ]
    }
  },
  "an9.1": {
    "location_dppn_headword": "Jetavana",
    "location_text": "Jeta's Grove, Anāthapiṇḍika's monastery, Sāvatthī",
    "geometry": {
      "type": "Point",
      "coordinates": [
        82.040073,
        27.509466
      ]
    }
  },
  "an9.3": {
    "location_dppn_headword": "Cālikā",
    "location_text": "Cālikā mountain",
    "geometry": {
      "type": "Point",
      "coordinates": [
        81.88076,
        25.690508
      ]
    }
  },
  "an9.4": {
    "location_dppn_headword": "Jetavana",
    "location_text": "Jeta's Grove, Anāthapiṇḍika's monastery, near Sāvatthī",
    "geometry": {
      "type": "Point",
      "coordinates": [
        82.040073,
        27.509466
      ]
    }
  },
  "an9.7": {
    "location_dppn_headword": "Gijjhakūṭa",
    "location_text": "Rājagaha, on the Vulture's Peak Mountain",
    "geometry": {
      "type": "Point",
      "coordinates": [
        85.446707,
        25.001967
      ]
    }
  },
  "an9.8": {
    "location_dppn_headword": "Gijjhakūṭa",
    "location_text": "Rājagaha, on the Vulture's Peak Mountain",
    "geometry": {
      "type": "Point",
      "coordinates": [
        85.446707,
        25.001967
      ]
    }
  },
  "an9.11": {
    "location_dppn_headword": "Jetavana",
    "location_text": "Jeta's Grove, Anāthapiṇḍika's monastery in Sāvatthī",
    "geometry": {
      "type": "Point",
      "coordinates": [
        82.040073,
        27.509466
      ]
    }
  },
  "an9.12": {
    "location_dppn_headword": "Jetavana",
    "location_text": "Jeta's Grove, Sāvatthī",
    "geometry": {
      "type": "Point",
      "coordinates": [
        82.040073,
        27.509466
      ]
    }
  },
  "an9.19": {
    "location_dppn_headword": "Jetavana",
    "location_text": "Jeta's Grove",
    "geometry": {
      "type": "Point",
      "coordinates": [
        82.040073,
        27.509466
      ]
    }
  },
  "an9.20": {
    "location_dppn_headword": "Jetavana",
    "location_text": "Jeta's Grove, Anāthapiṇḍika's monastery, near Sāvatthī",
    "geometry": {
      "type": "Point",
      "coordinates": [
        82.040073,
        27.509466
      ]
    }
  },
  "an9.26": {
    "location_dppn_headword": "Rājagaha",
    "location_text": "Bamboo Grove, near Rājagaha",
    "geometry": {
      "type": "Point",
      "coordinates": [
        85.42,
        25.03
      ]
    }
  },
  "an9.34": {
    "location_dppn_headword": "Rājagaha",
    "location_text": "Bamboo Grove, near Rājagaha",
    "geometry": {
      "type": "Point",
      "coordinates": [
        85.42,
        25.03
      ]
    }
  },
  "an9.37": {
    "location_dppn_headword": "Kosambī",
    "location_text": "Ghosita's Monastery, Kosambi",
    "geometry": {
      "type": "Point",
      "coordinates": [
        81.392899,
        25.338984
      ]
    }
  },
  "an9.41": {
    "location_dppn_headword": "Uruvelakappa",
    "location_text": "the land of the Mallas, near the Mallian town named Uruvelakappa",
    "geometry": {
      "type": "Point",
      "coordinates": [
        84.0509033,
        26.9857238
      ]
    }
  },
  "an9.42": {
    "location_dppn_headword": "Kosambī",
    "location_text": "Kosambi, in Ghosita's Monastery",
    "geometry": {
      "type": "Point",
      "coordinates": [
        81.392899,
        25.338984
      ]
    }
  },
  "an10.1": {
    "location_dppn_headword": "Jetavana",
    "location_text": "Jeta's Grove, Anāthapiṇḍika's monastery, near Sāvatthī",
    "geometry": {
      "type": "Point",
      "coordinates": [
        82.040073,
        27.509466
      ]
    }
  },
  "an10.7": {
    "location_dppn_headword": "Sāvatthī",
    "location_text": "Sāvatthī in the Dark Forest",
    "geometry": {
      "type": "Point",
      "coordinates": [
        82.062976,
        27.519508
      ]
    }
  },
  "an10.18": {
    "location_dppn_headword": "Jetavana",
    "location_text": "Jeta's Grove, Anāthapiṇḍika's monastery, Sāvatthī",
    "geometry": {
      "type": "Point",
      "coordinates": [
        82.040073,
        27.509466
      ]
    }
  },
  "an10.20": {
    "location_dppn_headword": "Kammāsadhamma",
    "location_text": "The land of the Kurus near the Kuru town named Kammāsadamma",
    "geometry": {
      "type": "Point",
      "coordinates": [
        78.02,
        29.17
      ]
    }
  },
  "an10.24": {
    "location_dppn_headword": "Sahajāti",
    "location_text": "the land of the Cetis at Sahajāti",
    "geometry": {}
  },
  "an10.26": {
    "location_dppn_headword": "Avanti",
    "location_text": "The land of the Avantis near Kuraraghara on Steep Mountain",
    "geometry": {
      "type": "Polygon",
      "coordinates": [
        [
          [
            74.5715981,
            22.4662177
          ],
          [
            74.6592951,
            22.319225
          ],
          [
            74.7469971,
            22.217757
          ],
          [
            74.8840398,
            22.121292
          ],
          [
            75.0101222,
            22.0400071
          ],
          [
            75.1416889,
            21.9688444
          ],
          [
            75.2951872,
            21.9383328
          ],
          [
            75.4157927,
            21.9129045
          ],
          [
            75.6021848,
            21.9332468
          ],
          [
            75.8433956,
            21.9790118
          ],
          [
            76.0681571,
            22.0501749
          ],
          [
            76.2216488,
            22.1162217
          ],
          [
            76.342248,
            22.17716
          ],
          [
            76.5834416,
            22.2938885
          ],
          [
            76.6382385,
            22.4865008
          ],
          [
            76.6162894,
            22.6737746
          ],
          [
            76.5066437,
            22.7900494
          ],
          [
            76.473737,
            22.9567145
          ],
          [
            76.380541,
            23.0626599
          ],
          [
            76.3037892,
            23.1987562
          ],
          [
            76.1557825,
            23.3196077
          ],
          [
            75.9584525,
            23.3799869
          ],
          [
            75.6460192,
            23.2994533
          ],
          [
            75.3390638,
            23.2692442
          ],
          [
            75.1307675,
            23.1382598
          ],
          [
            74.9060252,
            23.0828119
          ],
          [
            74.7635013,
            23.002114
          ],
          [
            74.6374119,
            22.8355116
          ],
          [
            74.5990275,
            22.6889275
          ],
          [
            74.5716094,
            22.5877416
          ],
          [
            74.5715981,
            22.4662177
          ]
        ]
      ]
    }
  },
  "an10.27": {
    "location_dppn_headword": "Jetavana",
    "location_text": "Jeta's Grove, Anāthapiṇḍika's monastery, Sāvatthī",
    "geometry": {
      "type": "Point",
      "coordinates": [
        82.040073,
        27.509466
      ]
    }
  },
  "an10.28": {
    "location_dppn_headword": "Gajaṅgala",
    "location_text": "Kajaṅgalā in a bamboo grove",
    "geometry": {}
  },
  "an10.30": {
    "location_dppn_headword": "Jetavana",
    "location_text": "Jeta's Grove, Anāthapiṇḍika's monastery, Sāvatthī",
    "geometry": {
      "type": "Point",
      "coordinates": [
        82.040073,
        27.509466
      ]
    }
  },
  "an10.44": {
    "location_dppn_headword": "Kusinārā",
    "location_text": "Kusinārā, in the Forest of Offerings",
    "geometry": {
      "type": "Point",
      "coordinates": [
        83.8835179,
        26.7371164
      ]
    }
  },
  "an10.46": {
    "location_dppn_headword": "Kapilavatthu",
    "location_text": "Kapilavatthu in the Banyan Tree Monastery",
    "geometry": {
      "type": "Point",
      "coordinates": [
        83.062961,
        27.5498798
      ]
    }
  },
  "an10.47": {
    "location_dppn_headword": "Vesāli",
    "location_text": "Vesālī, at the Great Wood, in the hall with the peaked roof",
    "geometry": {
      "type": "Point",
      "coordinates": [
        85.10951,
        26.014521
      ]
    }
  },
  "an10.50": {
    "location_dppn_headword": "Jetavana",
    "location_text": "Jeta's Grove, Anāthapiṇḍika's monastery, Sāvatthī",
    "geometry": {
      "type": "Point",
      "coordinates": [
        82.040073,
        27.509466
      ]
    }
  },
  "an10.51": {
    "location_dppn_headword": "Jetavana",
    "location_text": "Jeta's Grove, Anāthapiṇḍika's monastery, Sāvatthī",
    "geometry": {
      "type": "Point",
      "coordinates": [
        82.040073,
        27.509466
      ]
    }
  },
  "an10.60": {
    "location_dppn_headword": "Jetavana",
    "location_text": "Jeta's Grove, Anāthapiṇḍika's monastery near Sāvatthī",
    "geometry": {
      "type": "Point",
      "coordinates": [
        82.040073,
        27.509466
      ]
    }
  },
  "an10.65": {
    "location_dppn_headword": "Nāḷandā",
    "location_text": "the land of the Magadhans near the little village of Nālaka",
    "geometry": {
      "type": "Point",
      "coordinates": [
        85.443521,
        25.136951
      ]
    }
  },
  "an10.66": {
    "location_dppn_headword": "Nāḷandā",
    "location_text": "the land of the Magadhans near the little village of Nālaka",
    "geometry": {
      "type": "Point",
      "coordinates": [
        85.443521,
        25.136951
      ]
    }
  },
  "an10.67": {
    "location_dppn_headword": "Naḷakapāna",
    "location_text": "Naḷakapāna, in the parrot tree grove",
    "geometry": {}
  },
  "an10.68": {
    "location_dppn_headword": "Naḷakapāna",
    "location_text": "Naḷakapāna in the parrot tree grove",
    "geometry": {}
  },
  "an10.69": {
    "location_dppn_headword": "Jetavana",
    "location_text": "Jeta's Grove, Anāthapiṇḍika's monastery, Sāvatthī",
    "geometry": {
      "type": "Point",
      "coordinates": [
        82.040073,
        27.509466
      ]
    }
  },
  "an10.70": {
    "location_dppn_headword": "Jetavana",
    "location_text": "Jeta's Grove, Anāthapiṇḍika's monastery, near Sāvatthī",
    "geometry": {
      "type": "Point",
      "coordinates": [
        82.040073,
        27.509466
      ]
    }
  },
  "an10.71": {
    "location_dppn_headword": "Jetavana",
    "location_text": "Jeta's Grove, Anāthapiṇḍika's monastery, Sāvatthī",
    "geometry": {
      "type": "Point",
      "coordinates": [
        82.040073,
        27.509466
      ]
    }
  },
  "an10.72": {
    "location_dppn_headword": "Vesāli",
    "location_text": "Vesālī, at the Great Wood",
    "geometry": {
      "type": "Point",
      "coordinates": [
        85.10951,
        26.014521
      ]
    }
  },
  "an10.75": {
    "location_dppn_headword": "Jetavana",
    "location_text": "Jeta's Grove, Anāthapiṇḍika's monastery, near Sāvatthī",
    "geometry": {
      "type": "Point",
      "coordinates": [
        82.040073,
        27.509466
      ]
    }
  },
  "an10.81": {
    "location_dppn_headword": "Campā",
    "location_text": "Campā on the banks of the Gaggarā Lotus Pond",
    "geometry": {
      "type": "Point",
      "coordinates": [
        87.0049786,
        25.249845
      ]
    }
  },
  "an10.85": {
    "location_dppn_headword": "Sahajāti",
    "location_text": "the land of the Cetis at Sahajāti",
    "geometry": {}
  },
  "an10.86": {
    "location_dppn_headword": "Rājagaha",
    "location_text": "Bamboo Grove, Rājagaha",
    "geometry": {
      "type": "Point",
      "coordinates": [
        85.42,
        25.03
      ]
    }
  },
  "an10.89": {
    "location_dppn_headword": "Jetavana",
    "location_text": "Jeta's Grove",
    "geometry": {
      "type": "Point",
      "coordinates": [
        82.040073,
        27.509466
      ]
    }
  },
  "an10.91": {
    "location_dppn_headword": "Jetavana",
    "location_text": "Jeta's Grove, Anāthapiṇḍika's monastery, near Sāvatthī",
    "geometry": {
      "type": "Point",
      "coordinates": [
        82.040073,
        27.509466
      ]
    }
  },
  "an10.93": {
    "location_dppn_headword": "Jetavana",
    "location_text": "Jeta's Grove, Anāthapiṇḍika's monastery",
    "geometry": {
      "type": "Point",
      "coordinates": [
        82.040073,
        27.509466
      ]
    }
  },
  "an10.94": {
    "location_dppn_headword": "Campā",
    "location_text": "Campā on the banks of the Gaggarā Lotus Pond",
    "geometry": {
      "type": "Point",
      "coordinates": [
        87.0049786,
        25.249845
      ]
    }
  },
  "an10.96": {
    "location_dppn_headword": "Rājagaha",
    "location_text": "Rājagaha in the Hot Springs Monastery",
    "geometry": {
      "type": "Point",
      "coordinates": [
        85.42,
        25.03
      ]
    }
  },
  "an10.107": {
    "location_dppn_headword": "",
    "location_text": "Washing (country in the south)",
    "geometry": {}
  },
  "an10.167": {
    "location_dppn_headword": "",
    "location_text": "At that time it was the sabbath.",
    "geometry": {}
  },
  "an10.176": {
    "location_dppn_headword": "Pāvā",
    "location_text": "Pāvā in Cunda the smith's mango grove",
    "geometry": {
      "type": "Point",
      "coordinates": [
        84.055193,
        26.683878
      ]
    }
  },
  "an11.1": {
    "location_dppn_headword": "Jetavana",
    "location_text": "Jeta's Grove, Anāthapiṇḍika's monastery, Sāvatthī",
    "geometry": {
      "type": "Point",
      "coordinates": [
        82.040073,
        27.509466
      ]
    }
  },
  "an11.9": {
    "location_dppn_headword": "Nādikā",
    "location_text": "Nādika in the brick house",
    "geometry": {
      "type": "Point",
      "coordinates": [
        85.256652,
        25.743004
      ]
    }
  },
  "an11.10": {
    "location_dppn_headword": "Rājagaha",
    "location_text": "Rājagaha, at the monastery of the wanderers in the peacocks' feeding ground",
    "geometry": {
      "type": "Point",
      "coordinates": [
        85.42,
        25.03
      ]
    }
  },
  "an11.11": {
    "location_dppn_headword": "Kapilavatthu",
    "location_text": "Kapilavatthu in the Banyan Tree Monastery",
    "geometry": {
      "type": "Point",
      "coordinates": [
        83.062961,
        27.5498798
      ]
    }
  },
  "an11.12": {
    "location_dppn_headword": "Kapilavatthu",
    "location_text": "Kapilavatthu in the Banyan Tree Monastery",
    "geometry": {
      "type": "Point",
      "coordinates": [
        83.062961,
        27.5498798
      ]
    }
  },
  "an11.13": {
    "location_dppn_headword": "Kapilavatthu",
    "location_text": "Banyan Tree Monastery, Kapilavatthu, land of the Sakyans",
    "geometry": {
      "type": "Point",
      "coordinates": [
        83.062961,
        27.5498798
      ]
    }
  },
  "an11.16": {
    "location_dppn_headword": "Beluva",
    "location_text": "Vesālī in the little village of Beluva",
    "geometry": {}
  },
  "dn1": {
    "location_dppn_headword": "Ambalaṭṭhikā",
    "location_text": "Ambalaṭṭhikā",
    "geometry": {
      "type": "Point",
      "coordinates": [
        85.428143,
        25.083111
      ]
    }
  },
  "dn2": {
    "location_dppn_headword": "Rājagaha",
    "location_text": "Rājagaha in the Mango Grove of Jīvaka Komārabhacca",
    "geometry": {
      "type": "Point",
      "coordinates": [
        85.42,
        25.03
      ]
    }
  },
  "dn3": {
    "location_dppn_headword": "Iccānaṅgala",
    "location_text": "Icchānaṅgala, a village of the Kosalan brahmins, and a forest near Icchānaṅgala",
    "geometry": {
      "type": "Point",
      "coordinates": [
        82.706451,
        27.630007
      ]
    }
  },
  "dn4": {
    "location_dppn_headword": "Campā",
    "location_text": "Campā, by the banks of the Gaggarā Lotus Pond",
    "geometry": {
      "type": "Point",
      "coordinates": [
        87.0049786,
        25.249845
      ]
    }
  },
  "dn5": {
    "location_dppn_headword": "Khāṇumata",
    "location_text": "Khāṇumata, Ambalaṭṭhikā",
    "geometry": {}
  },
  "dn6": {
    "location_dppn_headword": "Vesāli",
    "location_text": "Vesālī",
    "geometry": {
      "type": "Point",
      "coordinates": [
        85.10951,
        26.014521
      ]
    }
  },
  "dn7": {
    "location_dppn_headword": "Kosambī",
    "location_text": "Kosambi, in Ghosita's Monastery",
    "geometry": {
      "type": "Point",
      "coordinates": [
        81.392899,
        25.338984
      ]
    }
  },
  "dn8": {
    "location_dppn_headword": "Kaṇṇakatthala",
    "location_text": "Ujuñña, in the deer park at Kaṇṇakatthala",
    "geometry": {}
  },
  "dn9": {
    "location_dppn_headword": "Jetavana",
    "location_text": "Jeta's Grove, Anāthapiṇḍika's monastery, Mallikā's single-halled monastery",
    "geometry": {
      "type": "Point",
      "coordinates": [
        82.040073,
        27.509466
      ]
    }
  },
  "dn10": {
    "location_dppn_headword": "Jetavana",
    "location_text": "Jeta's Grove, Anāthapiṇḍika's monastery",
    "geometry": {
      "type": "Point",
      "coordinates": [
        82.040073,
        27.509466
      ]
    }
  },
  "dn11": {
    "location_dppn_headword": "Nāḷandā",
    "location_text": "near Nālandā in Pāvārika's mango grove",
    "geometry": {
      "type": "Point",
      "coordinates": [
        85.443521,
        25.136951
      ]
    }
  },
  "dn12": {
    "location_dppn_headword": "Sālavatikā",
    "location_text": "Sālavatikā",
    "geometry": {}
  },
  "dn13": {
    "location_dppn_headword": "Manasākaṭa",
    "location_text": "Manasākaṭa, a village of the Kosalan brahmins, on a bank of the river Aciravatī to the north of Manasākaṭa",
    "geometry": {}
  },
  "dn14": {
    "location_dppn_headword": "Jetavana",
    "location_text": "Jeta's Grove, Anāthapiṇḍika's monastery",
    "geometry": {
      "type": "Point",
      "coordinates": [
        82.040073,
        27.509466
      ]
    }
  },
  "dn15": {
    "location_dppn_headword": "Kammāsadhamma",
    "location_text": "the land of the Kurus near the town named Kammāsadamma",
    "geometry": {
      "type": "Point",
      "coordinates": [
        78.02,
        29.17
      ]
    }
  },
  "dn16": {
    "location_dppn_headword": "Gijjhakūṭa",
    "location_text": "Rājagaha, on the Vulture's Peak Mountain",
    "geometry": {
      "type": "Point",
      "coordinates": [
        85.446707,
        25.001967
      ]
    }
  },
  "dn17": {
    "location_dppn_headword": "Upavatta",
    "location_text": "Upavattana near Kusinārā",
    "geometry": {
      "type": "Point",
      "coordinates": [
        83.8986393,
        26.7301265
      ]
    }
  },
  "dn18": {
    "location_dppn_headword": "Nādikā",
    "location_text": "Nādika in the brick house",
    "geometry": {
      "type": "Point",
      "coordinates": [
        85.256652,
        25.743004
      ]
    }
  },
  "dn19": {
    "location_dppn_headword": "Gijjhakūṭa",
    "location_text": "Vulture's Peak Mountain, near Rājagaha",
    "geometry": {
      "type": "Point",
      "coordinates": [
        85.446707,
        25.001967
      ]
    }
  },
  "dn20": {
    "location_dppn_headword": "Kapilavatthu",
    "location_text": "Kapilavatthu in the Great Wood",
    "geometry": {
      "type": "Point",
      "coordinates": [
        83.062961,
        27.5498798
      ]
    }
  },
  "dn21": {
    "location_dppn_headword": "Ambasaṇḍā",
    "location_text": "the land of the Magadhans, east of Rājagaha, Ambasaṇḍā, Mount Vediyaka, Indasāla cave, Uruvelā, goatherd's banyan tree, Nerañjarā River",
    "geometry": {
      "type": "Point",
      "coordinates": [
        85.5041885,
        25.0044169
      ]
    }
  },
  "dn22": {
    "location_dppn_headword": "Kammāsadhamma",
    "location_text": "The land of the Kurus near the Kuru town named Kammāsadamma.",
    "geometry": {
      "type": "Point",
      "coordinates": [
        78.02,
        29.17
      ]
    }
  },
  "dn23": {
    "location_dppn_headword": "Setabyā",
    "location_text": "Setavyā, grove of Indian Rosewood to the north of Setavyā",
    "geometry": {
      "type": "Point",
      "coordinates": [
        82.548065,
        27.668934
      ]
    }
  },
  "dn24": {
    "location_dppn_headword": "Anupiya",
    "location_text": "the Mallian town named Anupiya",
    "geometry": {}
  },
  "dn25": {
    "location_dppn_headword": "Gijjhakūṭa",
    "location_text": "Rājagaha, Vulture's Peak Mountain, Sumāgadhā",
    "geometry": {
      "type": "Point",
      "coordinates": [
        85.446707,
        25.001967
      ]
    }
  },
  "dn26": {
    "location_dppn_headword": "Mātula",
    "location_text": "The land of the Magadhans at Mātulā",
    "geometry": {}
  },
  "dn27": {
    "location_dppn_headword": "Sāvatthī",
    "location_text": "Sāvatthī in the Eastern Monastery, in the stilt longhouse of Migāra's mother",
    "geometry": {
      "type": "Point",
      "coordinates": [
        82.062976,
        27.519508
      ]
    }
  },
  "dn28": {
    "location_dppn_headword": "Nāḷandā",
    "location_text": "Nālandā in Pāvārika's mango grove",
    "geometry": {
      "type": "Point",
      "coordinates": [
        85.443521,
        25.136951
      ]
    }
  },
  "dn29": {
    "location_dppn_headword": "Sākya",
    "location_text": "the land of the Sakyans in a stilt longhouse in a mango grove belonging to the Sakyan family named Vedhañña",
    "geometry": {
      "type": "Polygon",
      "coordinates": [
        [
          [
            82.8945919,
            27.4887811
          ],
          [
            82.9206879,
            27.4430902
          ],
          [
            82.9666899,
            27.4010329
          ],
          [
            83.0051428,
            27.3607906
          ],
          [
            83.1438449,
            27.3248052
          ],
          [
            83.3917237,
            27.2900279
          ],
          [
            83.4123228,
            27.3126036
          ],
          [
            83.4291339,
            27.3544982
          ],
          [
            83.4734086,
            27.3884035
          ],
          [
            83.478928,
            27.458017
          ],
          [
            83.494191,
            27.521351
          ],
          [
            83.532143,
            27.576765
          ],
          [
            83.547098,
            27.611937
          ],
          [
            83.39859,
            27.66194
          ],
          [
            83.287354,
            27.688392
          ],
          [
            83.188477,
            27.746746
          ],
          [
            83.062134,
            27.766191
          ],
          [
            82.974243,
            27.756469
          ],
          [
            82.913818,
            27.71271
          ],
          [
            82.902832,
            27.634874
          ],
          [
            82.897339,
            27.556982
          ],
          [
            82.8945919,
            27.4887811
          ]
        ]
      ]
    }
  },
  "dn30": {
    "location_dppn_headword": "Jetavana",
    "location_text": "Jeta's Grove, Anāthapiṇḍika's monastery near Sāvatthī",
    "geometry": {
      "type": "Point",
      "coordinates": [
        82.040073,
        27.509466
      ]
    }
  },
  "dn31": {
    "location_dppn_headword": "Rājagaha",
    "location_text": "Rājagaha, in the Bamboo Grove, the squirrels' feeding ground",
    "geometry": {
      "type": "Point",
      "coordinates": [
        85.42,
        25.03
      ]
    }
  },
  "dn32": {
    "location_dppn_headword": "Gijjhakūṭa",
    "location_text": "Vulture's Peak Mountain, near Rājagaha",
    "geometry": {
      "type": "Point",
      "coordinates": [
        85.446707,
        25.001967
      ]
    }
  },
  "dn33": {
    "location_dppn_headword": "Pāvā",
    "location_text": "Pāvā, Cunda the smith's mango grove, Ubbhaṭaka town hall",
    "geometry": {
      "type": "Point",
      "coordinates": [
        84.055193,
        26.683878
      ]
    }
  },
  "dn34": {
    "location_dppn_headword": "Campā",
    "location_text": "Campā on the banks of the Gaggarā Lotus Pond",
    "geometry": {
      "type": "Point",
      "coordinates": [
        87.0049786,
        25.249845
      ]
    }
  },
  "mn1": {
    "location_dppn_headword": "",
    "location_text": "Ukkaṭṭhā, in the Subhaga Forest at the root of a magnificent sal tree",
    "geometry": {}
  },
  "mn2": {
    "location_dppn_headword": "Jetavana",
    "location_text": "Jeta's Grove, Anāthapiṇḍika's monastery near Sāvatthī",
    "geometry": {
      "type": "Point",
      "coordinates": [
        82.040073,
        27.509466
      ]
    }
  },
  "mn3": {
    "location_dppn_headword": "Jetavana",
    "location_text": "Jeta's Grove, Sāvatthī",
    "geometry": {
      "type": "Point",
      "coordinates": [
        82.040073,
        27.509466
      ]
    }
  },
  "mn4": {
    "location_dppn_headword": "Jetavana",
    "location_text": "Jeta's Grove, Anāthapiṇḍika's monastery near Sāvatthī",
    "geometry": {
      "type": "Point",
      "coordinates": [
        82.040073,
        27.509466
      ]
    }
  },
  "mn5": {
    "location_dppn_headword": "Jetavana",
    "location_text": "Jeta's Grove, Anāthapiṇḍika's monastery",
    "geometry": {
      "type": "Point",
      "coordinates": [
        82.040073,
        27.509466
      ]
    }
  },
  "mn6": {
    "location_dppn_headword": "Jetavana",
    "location_text": "Jeta's Grove, Anāthapiṇḍika's monastery",
    "geometry": {
      "type": "Point",
      "coordinates": [
        82.040073,
        27.509466
      ]
    }
  },
  "mn7": {
    "location_dppn_headword": "Jetavana",
    "location_text": "Jeta's Grove, Anāthapiṇḍika's monastery near Sāvatthī",
    "geometry": {
      "type": "Point",
      "coordinates": [
        82.040073,
        27.509466
      ]
    }
  },
  "mn8": {
    "location_dppn_headword": "Jetavana",
    "location_text": "Jeta's Grove, Sāvatthī",
    "geometry": {
      "type": "Point",
      "coordinates": [
        82.040073,
        27.509466
      ]
    }
  },
  "mn9": {
    "location_dppn_headword": "Jetavana",
    "location_text": "Jeta's Grove, Anāthapiṇḍika's monastery",
    "geometry": {
      "type": "Point",
      "coordinates": [
        82.040073,
        27.509466
      ]
    }
  },
  "mn10": {
    "location_dppn_headword": "Kammāsadhamma",
    "location_text": "The land of the Kurus near the Kuru town named Kammāsadamma.",
    "geometry": {
      "type": "Point",
      "coordinates": [
        78.02,
        29.17
      ]
    }
  },
  "mn11": {
    "location_dppn_headword": "Jetavana",
    "location_text": "Jeta's Grove, Anāthapiṇḍika's monastery",
    "geometry": {
      "type": "Point",
      "coordinates": [
        82.040073,
        27.509466
      ]
    }
  },
  "mn12": {
    "location_dppn_headword": "Vesāli",
    "location_text": "Vesālī in a woodland grove behind the town",
    "geometry": {
      "type": "Point",
      "coordinates": [
        85.10951,
        26.014521
      ]
    }
  },
  "mn13": {
    "location_dppn_headword": "Jetavana",
    "location_text": "Jeta's Grove, Anāthapiṇḍika's monastery",
    "geometry": {
      "type": "Point",
      "coordinates": [
        82.040073,
        27.509466
      ]
    }
  },
  "mn14": {
    "location_dppn_headword": "Kapilavatthu",
    "location_text": "Kapilavatthu in the Banyan Tree Monastery",
    "geometry": {
      "type": "Point",
      "coordinates": [
        83.062961,
        27.5498798
      ]
    }
  },
  "mn15": {
    "location_dppn_headword": "Susumāragiri",
    "location_text": "The land of the Bhaggas on Crocodile Hill, in the deer park at Bhesakaḷā's Wood.",
    "geometry": {}
  },
  "mn16": {
    "location_dppn_headword": "Jetavana",
    "location_text": "Jeta's Grove, Anāthapiṇḍika's monastery near Sāvatthī",
    "geometry": {
      "type": "Point",
      "coordinates": [
        82.040073,
        27.509466
      ]
    }
  },
  "mn17": {
    "location_dppn_headword": "Jetavana",
    "location_text": "Jeta's Grove, Sāvatthī",
    "geometry": {
      "type": "Point",
      "coordinates": [
        82.040073,
        27.509466
      ]
    }
  },
  "mn18": {
    "location_dppn_headword": "Kapilavatthu",
    "location_text": "Kapilavatthu in the Banyan Tree Monastery, Great Wood",
    "geometry": {
      "type": "Point",
      "coordinates": [
        83.062961,
        27.5498798
      ]
    }
  },
  "mn19": {
    "location_dppn_headword": "Jetavana",
    "location_text": "Jeta's Grove, Anāthapiṇḍika's monastery",
    "geometry": {
      "type": "Point",
      "coordinates": [
        82.040073,
        27.509466
      ]
    }
  },
  "mn20": {
    "location_dppn_headword": "Jetavana",
    "location_text": "Jeta's Grove, Anāthapiṇḍika's monastery",
    "geometry": {
      "type": "Point",
      "coordinates": [
        82.040073,
        27.509466
      ]
    }
  },
  "mn21": {
    "location_dppn_headword": "Jetavana",
    "location_text": "Jeta's Grove, Anāthapiṇḍika's monastery",
    "geometry": {
      "type": "Point",
      "coordinates": [
        82.040073,
        27.509466
      ]
    }
  },
  "mn22": {
    "location_dppn_headword": "Jetavana",
    "location_text": "Jeta's Grove, Anāthapiṇḍika's monastery",
    "geometry": {
      "type": "Point",
      "coordinates": [
        82.040073,
        27.509466
      ]
    }
  },
  "mn23": {
    "location_dppn_headword": "Jetavana",
    "location_text": "Jeta's Grove, Sāvatthī, Dark Forest",
    "geometry": {
      "type": "Point",
      "coordinates": [
        82.040073,
        27.509466
      ]
    }
  },
  "mn24": {
    "location_dppn_headword": "Rājagaha",
    "location_text": "Rājagaha, Bamboo Grove, Sāvatthī, Jeta's Grove, Anāthapiṇḍika's monastery, Dark Forest",
    "geometry": {
      "type": "Point",
      "coordinates": [
        85.42,
        25.03
      ]
    }
  },
  "mn25": {
    "location_dppn_headword": "Jetavana",
    "location_text": "Jeta's Grove, Anāthapiṇḍika's monastery near Sāvatthī",
    "geometry": {
      "type": "Point",
      "coordinates": [
        82.040073,
        27.509466
      ]
    }
  },
  "mn26": {
    "location_dppn_headword": "Jetavana",
    "location_text": "Jeta's Grove, Anāthapiṇḍika's monastery, the Eastern Monastery, the stilt longhouse of Migāra's mother, the brahmin Rammaka's hermitage",
    "geometry": {
      "type": "Point",
      "coordinates": [
        82.040073,
        27.509466
      ]
    }
  },
  "mn27": {
    "location_dppn_headword": "Jetavana",
    "location_text": "Jeta's Grove, Sāvatthī",
    "geometry": {
      "type": "Point",
      "coordinates": [
        82.040073,
        27.509466
      ]
    }
  },
  "mn28": {
    "location_dppn_headword": "Jetavana",
    "location_text": "Jeta's Grove, Anāthapiṇḍika's monastery",
    "geometry": {
      "type": "Point",
      "coordinates": [
        82.040073,
        27.509466
      ]
    }
  },
  "mn29": {
    "location_dppn_headword": "Gijjhakūṭa",
    "location_text": "Vulture's Peak Mountain, near Rājagaha",
    "geometry": {
      "type": "Point",
      "coordinates": [
        85.446707,
        25.001967
      ]
    }
  },
  "mn30": {
    "location_dppn_headword": "Jetavana",
    "location_text": "Jeta's Grove, Anāthapiṇḍika's monastery",
    "geometry": {
      "type": "Point",
      "coordinates": [
        82.040073,
        27.509466
      ]
    }
  },
  "mn31": {
    "location_dppn_headword": "",
    "location_text": "Nādika in the brick house, sal forest park at Gosiṅga",
    "geometry": {}
  },
  "mn32": {
    "location_dppn_headword": "",
    "location_text": "sal forest park at Gosiṅga",
    "geometry": {}
  },
  "mn33": {
    "location_dppn_headword": "Jetavana",
    "location_text": "Jeta's Grove, Anāthapiṇḍika's monastery",
    "geometry": {
      "type": "Point",
      "coordinates": [
        82.040073,
        27.509466
      ]
    }
  },
  "mn34": {
    "location_dppn_headword": "Ukkacelā",
    "location_text": "The land of the Vajjis near Ukkacelā on the bank of the Ganges river.",
    "geometry": {
      "type": "Point",
      "coordinates": [
        85.039666,
        25.723207
      ]
    }
  },
  "mn35": {
    "location_dppn_headword": "Vesāli",
    "location_text": "Vesālī, at the Great Wood, in the hall with the peaked roof",
    "geometry": {
      "type": "Point",
      "coordinates": [
        85.10951,
        26.014521
      ]
    }
  },
  "mn36": {
    "location_dppn_headword": "Vesāli",
    "location_text": "Vesālī, at the Great Wood, in the hall with the peaked roof",
    "geometry": {
      "type": "Point",
      "coordinates": [
        85.10951,
        26.014521
      ]
    }
  },
  "mn37": {
    "location_dppn_headword": "Sāvatthī",
    "location_text": "Sāvatthī in the Eastern Monastery, the stilt longhouse of Migāra's mother, Single Lotus Park, Palace of Victory",
    "geometry": {
      "type": "Point",
      "coordinates": [
        82.062976,
        27.519508
      ]
    }
  },
  "mn38": {
    "location_dppn_headword": "Jetavana",
    "location_text": "Jeta's Grove, Sāvatthī",
    "geometry": {
      "type": "Point",
      "coordinates": [
        82.040073,
        27.509466
      ]
    }
  },
  "mn39": {
    "location_dppn_headword": "Assapura",
    "location_text": "The land of the Aṅgas, near the Aṅgan town named Assapura.",
    "geometry": {}
  },
  "mn40": {
    "location_dppn_headword": "Assapura",
    "location_text": "The land of the Aṅgas, near the Aṅgan town named Assapura.",
    "geometry": {}
  },
  "mn41": {
    "location_dppn_headword": "Sālā",
    "location_text": "the land of the Kosalans, Sālā village",
    "geometry": {}
  },
  "mn42": {
    "location_dppn_headword": "Jetavana",
    "location_text": "Jeta's Grove, Anāthapiṇḍika's monastery near Sāvatthī",
    "geometry": {
      "type": "Point",
      "coordinates": [
        82.040073,
        27.509466
      ]
    }
  },
  "mn43": {
    "location_dppn_headword": "Jetavana",
    "location_text": "Jeta's Grove, Anāthapiṇḍika's monastery near Sāvatthī",
    "geometry": {
      "type": "Point",
      "coordinates": [
        82.040073,
        27.509466
      ]
    }
  },
  "mn44": {
    "location_dppn_headword": "Rājagaha",
    "location_text": "Rājagaha, Bamboo Grove, squirrels' feeding ground",
    "geometry": {
      "type": "Point",
      "coordinates": [
        85.42,
        25.03
      ]
    }
  },
  "mn45": {
    "location_dppn_headword": "Jetavana",
    "location_text": "Jeta's Grove, Anāthapiṇḍika's monastery",
    "geometry": {
      "type": "Point",
      "coordinates": [
        82.040073,
        27.509466
      ]
    }
  },
  "mn46": {
    "location_dppn_headword": "Jetavana",
    "location_text": "Jeta's Grove, Anāthapiṇḍika's monastery near Sāvatthī",
    "geometry": {
      "type": "Point",
      "coordinates": [
        82.040073,
        27.509466
      ]
    }
  },
  "mn47": {
    "location_dppn_headword": "Jetavana",
    "location_text": "Jeta's Grove, Anāthapiṇḍika's monastery",
    "geometry": {
      "type": "Point",
      "coordinates": [
        82.040073,
        27.509466
      ]
    }
  },
  "mn48": {
    "location_dppn_headword": "Kosambī",
    "location_text": "Kosambi, in Ghosita's Monastery",
    "geometry": {
      "type": "Point",
      "coordinates": [
        81.392899,
        25.338984
      ]
    }
  },
  "mn49": {
    "location_dppn_headword": "Jetavana",
    "location_text": "Jeta's Grove, Anāthapiṇḍika's monastery, Ukkaṭṭhā, Subhaga Forest",
    "geometry": {
      "type": "Point",
      "coordinates": [
        82.040073,
        27.509466
      ]
    }
  },
  "mn50": {
    "location_dppn_headword": "Susumāragiri",
    "location_text": "Bhesekaḷā grove, land of the Bhaggas on Crocodile Hill, deer park at Bhesakaḷā's Wood",
    "geometry": {}
  },
  "mn51": {
    "location_dppn_headword": "Campā",
    "location_text": "Campā on the banks of the Gaggarā Lotus Pond",
    "geometry": {
      "type": "Point",
      "coordinates": [
        87.0049786,
        25.249845
      ]
    }
  },
  "mn52": {
    "location_dppn_headword": "Beluva",
    "location_text": "the little village of Beluva in Vesālī",
    "geometry": {}
  },
  "mn53": {
    "location_dppn_headword": "Kapilavatthu",
    "location_text": "Banyan Tree Monastery, near Kapilavatthu in the land of the Sakyans",
    "geometry": {
      "type": "Point",
      "coordinates": [
        83.062961,
        27.5498798
      ]
    }
  },
  "mn54": {
    "location_dppn_headword": "Āpaṇa",
    "location_text": "The land of the Northern Āpaṇas, near the town of theirs named Āpaṇa.",
    "geometry": {
      "type": "Point",
      "coordinates": [
        87.132568,
        25.465594
      ]
    }
  },
  "mn55": {
    "location_dppn_headword": "Rājagaha",
    "location_text": "Rājagaha in the Mango Grove of Jīvaka Komārabhacca",
    "geometry": {
      "type": "Point",
      "coordinates": [
        85.42,
        25.03
      ]
    }
  },
  "mn56": {
    "location_dppn_headword": "Nāḷandā",
    "location_text": "Nālandā in Pāvārika's mango grove",
    "geometry": {
      "type": "Point",
      "coordinates": [
        85.443521,
        25.136951
      ]
    }
  },
  "mn57": {
    "location_dppn_headword": "Haliddavasana",
    "location_text": "The land of the Koliyans, Haliddavasana",
    "geometry": {
      "type": "Point",
      "coordinates": [
        83.7117037,
        27.4290775
      ]
    }
  },
  "mn58": {
    "location_dppn_headword": "Rājagaha",
    "location_text": "Rājagaha, in the Bamboo Grove, the squirrels' feeding ground",
    "geometry": {
      "type": "Point",
      "coordinates": [
        85.42,
        25.03
      ]
    }
  },
  "mn59": {
    "location_dppn_headword": "Jetavana",
    "location_text": "Jeta's Grove, Anāthapiṇḍika's monastery",
    "geometry": {
      "type": "Point",
      "coordinates": [
        82.040073,
        27.509466
      ]
    }
  },
  "mn60": {
    "location_dppn_headword": "Sālā",
    "location_text": "the land of the Kosalans, Sālā",
    "geometry": {}
  },
  "mn61": {
    "location_dppn_headword": "Rājagaha",
    "location_text": "Bamboo Grove, near Rājagaha",
    "geometry": {
      "type": "Point",
      "coordinates": [
        85.42,
        25.03
      ]
    }
  },
  "mn62": {
    "location_dppn_headword": "Jetavana",
    "location_text": "Jeta's Grove, Anāthapiṇḍika's monastery, Sāvatthī",
    "geometry": {
      "type": "Point",
      "coordinates": [
        82.040073,
        27.509466
      ]
    }
  },
  "mn63": {
    "location_dppn_headword": "Jetavana",
    "location_text": "Jeta's Grove, Anāthapiṇḍika's monastery near Sāvatthī",
    "geometry": {
      "type": "Point",
      "coordinates": [
        82.040073,
        27.509466
      ]
    }
  },
  "mn64": {
    "location_dppn_headword": "Jetavana",
    "location_text": "Jeta's Grove, Anāthapiṇḍika's monastery",
    "geometry": {
      "type": "Point",
      "coordinates": [
        82.040073,
        27.509466
      ]
    }
  },
  "mn65": {
    "location_dppn_headword": "Jetavana",
    "location_text": "Jeta's Grove, Anāthapiṇḍika's monastery",
    "geometry": {
      "type": "Point",
      "coordinates": [
        82.040073,
        27.509466
      ]
    }
  },
  "mn66": {
    "location_dppn_headword": "Āpaṇa",
    "location_text": "The land of the Northern Āpaṇas, near the town of theirs named Āpaṇa.",
    "geometry": {
      "type": "Point",
      "coordinates": [
        87.132568,
        25.465594
      ]
    }
  },
  "mn67": {
    "location_dppn_headword": "",
    "location_text": "Cātumā in a myrobalan grove",
    "geometry": {}
  },
  "mn68": {
    "location_dppn_headword": "Naḷakapāna",
    "location_text": "the land of the Kosalans near Naḷakapāna in the Parrot Tree grove",
    "geometry": {}
  },
  "mn69": {
    "location_dppn_headword": "Rājagaha",
    "location_text": "Rājagaha, in the Bamboo Grove, the squirrels' feeding ground.",
    "geometry": {
      "type": "Point",
      "coordinates": [
        85.42,
        25.03
      ]
    }
  },
  "mn70": {
    "location_dppn_headword": "Kīṭāgiri",
    "location_text": "the land of the Kāsīs, Kīṭāgiri",
    "geometry": {
      "type": "Point",
      "coordinates": [
        81.956724,
        25.881474
      ]
    }
  },
  "mn71": {
    "location_dppn_headword": "Vesāli",
    "location_text": "Vesālī, at the Great Wood, in the hall with the peaked roof.",
    "geometry": {
      "type": "Point",
      "coordinates": [
        85.10951,
        26.014521
      ]
    }
  },
  "mn72": {
    "location_dppn_headword": "Jetavana",
    "location_text": "Jeta's Grove, Anāthapiṇḍika's monastery near Sāvatthī",
    "geometry": {
      "type": "Point",
      "coordinates": [
        82.040073,
        27.509466
      ]
    }
  },
  "mn73": {
    "location_dppn_headword": "Rājagaha",
    "location_text": "Bamboo Grove, the squirrels' feeding ground near Rājagaha",
    "geometry": {
      "type": "Point",
      "coordinates": [
        85.42,
        25.03
      ]
    }
  },
  "mn74": {
    "location_dppn_headword": "Gijjhakūṭa",
    "location_text": "Vulture's Peak Mountain in the Boar's Cave near Rājagaha",
    "geometry": {
      "type": "Point",
      "coordinates": [
        85.446707,
        25.001967
      ]
    }
  },
  "mn75": {
    "location_dppn_headword": "Kammāsadhamma",
    "location_text": "the land of the Kurus near the Kuru town named Kammāsadamma",
    "geometry": {
      "type": "Point",
      "coordinates": [
        78.02,
        29.17
      ]
    }
  },
  "mn76": {
    "location_dppn_headword": "Kosambī",
    "location_text": "Kosambi, in Ghosita's Monastery, at the cave of the wavy leaf fig tree, Devakata Pool",
    "geometry": {
      "type": "Point",
      "coordinates": [
        81.392899,
        25.338984
      ]
    }
  },
  "mn77": {
    "location_dppn_headword": "Rājagaha",
    "location_text": "Rājagaha, Bamboo Grove, the squirrels' feeding ground, the monastery of the wanderers in the peacocks' feeding ground",
    "geometry": {
      "type": "Point",
      "coordinates": [
        85.42,
        25.03
      ]
    }
  },
  "mn78": {
    "location_dppn_headword": "Jetavana",
    "location_text": "Jeta's Grove, Anāthapiṇḍika's monastery, Mallikā's single-halled monastery",
    "geometry": {
      "type": "Point",
      "coordinates": [
        82.040073,
        27.509466
      ]
    }
  },
  "mn79": {
    "location_dppn_headword": "Rājagaha",
    "location_text": "Rājagaha, in the Bamboo Grove, the squirrels' feeding ground",
    "geometry": {
      "type": "Point",
      "coordinates": [
        85.42,
        25.03
      ]
    }
  },
  "mn80": {
    "location_dppn_headword": "Jetavana",
    "location_text": "Jeta's Grove, Anāthapiṇḍika's monastery",
    "geometry": {
      "type": "Point",
      "coordinates": [
        82.040073,
        27.509466
      ]
    }
  },
  "mn81": {
    "location_dppn_headword": "",
    "location_text": "the land of the Kosalans",
    "geometry": {}
  },
  "mn82": {
    "location_dppn_headword": "Thullakoṭṭhika",
    "location_text": "Thullakoṭṭhita",
    "geometry": {}
  },
  "mn83": {
    "location_dppn_headword": "Mithilā",
    "location_text": "Mithilā in the Makhādeva Mango Grove",
    "geometry": {
      "type": "Point",
      "coordinates": [
        85.921667,
        26.712222
      ]
    }
  },
  "mn84": {
    "location_dppn_headword": "Madhurā",
    "location_text": "Madhurā, in Gunda's Grove",
    "geometry": {
      "type": "Point",
      "coordinates": [
        77.673611,
        27.4925
      ]
    }
  },
  "mn85": {
    "location_dppn_headword": "Susumāragiri",
    "location_text": "the land of the Bhaggas on Crocodile Hill, in the deer park at Bhesakaḷā's Wood",
    "geometry": {}
  },
  "mn86": {
    "location_dppn_headword": "Jetavana",
    "location_text": "Jeta's Grove, Anāthapiṇḍika's monastery, Sāvatthī",
    "geometry": {
      "type": "Point",
      "coordinates": [
        82.040073,
        27.509466
      ]
    }
  },
  "mn87": {
    "location_dppn_headword": "Jetavana",
    "location_text": "Jeta's Grove, Anāthapiṇḍika's monastery",
    "geometry": {
      "type": "Point",
      "coordinates": [
        82.040073,
        27.509466
      ]
    }
  },
  "mn88": {
    "location_dppn_headword": "Jetavana",
    "location_text": "Sāvatthī in Jeta's Grove, Anāthapiṇḍika's monastery",
    "geometry": {
      "type": "Point",
      "coordinates": [
        82.040073,
        27.509466
      ]
    }
  },
  "mn89": {
    "location_dppn_headword": "Medāḷupa",
    "location_text": "the land of the Sakyans, near the Sakyan town named Medaḷumpa",
    "geometry": {
      "type": "Point",
      "coordinates": [
        83.233795,
        27.626357
      ]
    }
  },
  "mn90": {
    "location_dppn_headword": "Kaṇṇakatthala",
    "location_text": "Ujuñña, deer park at Kaṇṇakatthala",
    "geometry": {}
  },
  "mn91": {
    "location_dppn_headword": "Videha",
    "location_text": "the land of the Videhans",
    "geometry": {
      "type": "Polygon",
      "coordinates": [
        [
          [
            85.108337,
            26.797106
          ],
          [
            85.100098,
            26.703906
          ],
          [
            85.113831,
            26.615541
          ],
          [
            85.144043,
            26.527108
          ],
          [
            85.267639,
            26.431228
          ],
          [
            85.440674,
            26.359881
          ],
          [
            85.608215,
            26.313113
          ],
          [
            85.814209,
            26.28849
          ],
          [
            85.929565,
            26.273714
          ],
          [
            86.105347,
            26.25401
          ],
          [
            86.234436,
            26.25401
          ],
          [
            86.308594,
            26.293415
          ],
          [
            86.325073,
            26.364803
          ],
          [
            86.363525,
            26.45582
          ],
          [
            86.377258,
            26.53448
          ],
          [
            86.352539,
            26.625363
          ],
          [
            86.303101,
            26.718627
          ],
          [
            86.250916,
            26.809364
          ],
          [
            86.165772,
            26.900028
          ],
          [
            86.091614,
            26.936763
          ],
          [
            85.98175,
            26.988171
          ],
          [
            85.918579,
            27.000408
          ],
          [
            85.783997,
            27.044449
          ],
          [
            85.687866,
            27.064018
          ],
          [
            85.58075,
            27.049342
          ],
          [
            85.457153,
            27.027324
          ],
          [
            85.352783,
            26.995514
          ],
          [
            85.281372,
            26.966142
          ],
          [
            85.168762,
            26.880431
          ],
          [
            85.108337,
            26.797106
          ]
        ]
      ]
    }
  },
  "mn92": {
    "location_dppn_headword": "Āpaṇa",
    "location_text": "Āpaṇa",
    "geometry": {
      "type": "Point",
      "coordinates": [
        87.132568,
        25.465594
      ]
    }
  },
  "mn93": {
    "location_dppn_headword": "Jetavana",
    "location_text": "Jeta's Grove, Anāthapiṇḍika's monastery in Sāvatthī",
    "geometry": {
      "type": "Point",
      "coordinates": [
        82.040073,
        27.509466
      ]
    }
  },
  "mn94": {
    "location_dppn_headword": "Bārānasī",
    "location_text": "Khemiya Mango Grove near Benares",
    "geometry": {
      "type": "Point",
      "coordinates": [
        83.0044556,
        25.2993376
      ]
    }
  },
  "mn95": {
    "location_dppn_headword": "",
    "location_text": "Opāsāda, God's Grove",
    "geometry": {}
  },
  "mn96": {
    "location_dppn_headword": "Jetavana",
    "location_text": "Jeta's Grove, Anāthapiṇḍika's monastery near Sāvatthī",
    "geometry": {
      "type": "Point",
      "coordinates": [
        82.040073,
        27.509466
      ]
    }
  },
  "mn97": {
    "location_dppn_headword": "Rājagaha",
    "location_text": "Rājagaha, in the Bamboo Grove, the squirrels' feeding ground",
    "geometry": {
      "type": "Point",
      "coordinates": [
        85.42,
        25.03
      ]
    }
  },
  "mn98": {
    "location_dppn_headword": "Iccānaṅgala",
    "location_text": "a forest near Icchānaṅgala",
    "geometry": {
      "type": "Point",
      "coordinates": [
        82.706451,
        27.630007
      ]
    }
  },
  "mn99": {
    "location_dppn_headword": "Jetavana",
    "location_text": "Sāvatthī in Jeta's Grove, Anāthapiṇḍika's monastery",
    "geometry": {
      "type": "Point",
      "coordinates": [
        82.040073,
        27.509466
      ]
    }
  },
  "mn100": {
    "location_dppn_headword": "Cañcalikappa",
    "location_text": "The land of the Kosalans, Caṇḍalakappa, the mango grove of the Todeyya brahmins",
    "geometry": {}
  },
  "mn101": {
    "location_dppn_headword": "Devadaha",
    "location_text": "The land of the Sakyans, near the Sakyan town named Devadaha.",
    "geometry": {
      "type": "Point",
      "coordinates": [
        83.511372,
        27.523572
      ]
    }
  },
  "mn102": {
    "location_dppn_headword": "Jetavana",
    "location_text": "Jeta's Grove, Anāthapiṇḍika's monastery",
    "geometry": {
      "type": "Point",
      "coordinates": [
        82.040073,
        27.509466
      ]
    }
  },
  "mn103": {
    "location_dppn_headword": "Kusinārā",
    "location_text": "Near Kusināra, in the Forest of Offerings",
    "geometry": {
      "type": "Point",
      "coordinates": [
        83.8835179,
        26.7371164
      ]
    }
  },
  "mn104": {
    "location_dppn_headword": "Pāvā",
    "location_text": "Sāma village near the village of Pāvā",
    "geometry": {
      "type": "Point",
      "coordinates": [
        84.055193,
        26.683878
      ]
    }
  },
  "mn105": {
    "location_dppn_headword": "Vesāli",
    "location_text": "Vesālī, at the Great Wood, in the hall with the peaked roof",
    "geometry": {
      "type": "Point",
      "coordinates": [
        85.10951,
        26.014521
      ]
    }
  },
  "mn106": {
    "location_dppn_headword": "Kammāsadhamma",
    "location_text": "The land of the Kurus near the Kuru town named Kammāsadamma.",
    "geometry": {
      "type": "Point",
      "coordinates": [
        78.02,
        29.17
      ]
    }
  },
  "mn107": {
    "location_dppn_headword": "Sāvatthī",
    "location_text": "Sāvatthī in the Eastern Monastery, the stilt longhouse of Migāra's mother",
    "geometry": {
      "type": "Point",
      "coordinates": [
        82.062976,
        27.519508
      ]
    }
  },
  "mn108": {
    "location_dppn_headword": "Rājagaha",
    "location_text": "Rājagaha, in the Bamboo Grove, the squirrels' feeding ground",
    "geometry": {
      "type": "Point",
      "coordinates": [
        85.42,
        25.03
      ]
    }
  },
  "mn109": {
    "location_dppn_headword": "Sāvatthī",
    "location_text": "Sāvatthī in the Eastern Monastery",
    "geometry": {
      "type": "Point",
      "coordinates": [
        82.062976,
        27.519508
      ]
    }
  },
  "mn110": {
    "location_dppn_headword": "Sāvatthī",
    "location_text": "Near Sāvatthī in the Eastern Monastery, the stilt longhouse of Migāra's mother",
    "geometry": {
      "type": "Point",
      "coordinates": [
        82.062976,
        27.519508
      ]
    }
  },
  "mn111": {
    "location_dppn_headword": "Jetavana",
    "location_text": "Jeta's Grove, Anāthapiṇḍika's monastery near Sāvatthī",
    "geometry": {
      "type": "Point",
      "coordinates": [
        82.040073,
        27.509466
      ]
    }
  },
  "mn112": {
    "location_dppn_headword": "Jetavana",
    "location_text": "Jeta's Grove, Anāthapiṇḍika's monastery near Sāvatthī",
    "geometry": {
      "type": "Point",
      "coordinates": [
        82.040073,
        27.509466
      ]
    }
  },
  "mn113": {
    "location_dppn_headword": "Jetavana",
    "location_text": "Jeta's Grove, Sāvatthī",
    "geometry": {
      "type": "Point",
      "coordinates": [
        82.040073,
        27.509466
      ]
    }
  },